City,Lat,Lng,Max Temp,Humidity,Cloudiness,Wind Speed,Country,Date
Pacasmayo,-7.4006,-79.5714,23.64,65,54,5.74,PE,1612557018
East London,-33.0153,27.9116,22.86,89,100,4.92,ZA,1612556745
Sitka,57.0531,-135.33,2.0,93,90,2.06,US,1612557018
Rikitea,-23.1203,-134.9692,26.08,68,0,4.81,PF,1612556753
Springdale,36.1867,-94.1288,10.56,34,40,5.66,US,1612556951
Te Anau,-45.4167,167.7167,17.03,76,79,0.44,NZ,1612557018
Ribeira Grande,38.5167,-28.7,15.0,77,75,6.17,PT,1612557019
Qaanaaq,77.484,-69.3632,-23.27,75,100,3.49,GL,1612556753
Mataura,-46.1927,168.8643,17.24,63,8,0.44,NZ,1612557019
Ahipara,-35.1667,173.1667,18.29,81,100,1.99,NZ,1612556851
Thompson,55.7435,-97.8558,-25.0,64,75,4.63,CA,1612556811
Arraial do Cabo,-22.9661,-42.0278,26.0,83,75,4.63,BR,1612556800
Letlhakane,-21.4167,25.5833,23.09,77,98,4.96,BW,1612557019
Romanovo,52.6182,81.2271,-4.77,99,93,2.89,RU,1612557019
Ancud,-41.8697,-73.8203,29.0,28,0,7.72,CL,1612557020
Aksu,41.1231,80.2644,-3.56,87,33,1.5,CN,1612557020
Tuktoyaktuk,69.4541,-133.0374,-32.0,75,90,7.2,CA,1612556826
Provideniya,64.3833,-173.3,-14.03,90,100,7.35,RU,1612556824
Hermanus,-34.4187,19.2345,20.56,83,4,0.89,ZA,1612556823
Qingdao,36.0986,120.3719,5.56,86,0,1.0,CN,1612556900
Karpogory,64.0019,44.4451,-23.34,89,100,4.86,RU,1612557020
Punta Arenas,-53.15,-70.9167,14.0,38,0,11.32,CL,1612557020
Ushuaia,-54.8,-68.3,9.0,71,75,13.89,AR,1612557020
Sines Municipality,37.9562,-8.8698,11.67,87,100,3.58,PT,1612557020
Vila Franca do Campo,37.7167,-25.4333,13.33,71,40,3.09,PT,1612557021
Vaini,-21.2,-175.2,28.0,89,75,1.54,TO,1612556828
Labuhan,-6.8844,112.2051,25.52,86,93,5.22,ID,1612556863
Saldanha,-33.0117,17.9442,18.0,77,0,4.63,ZA,1612557021
Atuona,-9.8,-139.0333,26.39,80,4,7.93,PF,1612557021
Lata,40.1629,-8.3327,11.11,92,89,0.89,PT,1612557021
Lagoa,39.05,-27.9833,14.48,85,98,6.65,PT,1612557021
Saint-Philippe,-21.3585,55.7679,26.0,65,0,2.57,RE,1612556831
Souillac,-20.5167,57.5167,26.0,78,40,3.09,MU,1612557021
Terrace Bay,48.7834,-87.1,-12.0,72,90,4.12,CA,1612557021
Rawson,-43.3002,-65.1023,19.87,72,3,14.31,AR,1612557021
Cape Town,-33.9258,18.4232,21.11,83,0,6.17,ZA,1612556781
Yar-Sale,66.8333,70.8333,-29.6,87,100,3.77,RU,1612557022
Grand Gaube,-20.0064,57.6608,25.56,78,6,1.79,MU,1612557022
Dikson,73.5069,80.5464,-36.55,83,4,4.53,RU,1612557022
Geraldton,-28.7667,114.6,17.0,88,90,5.66,AU,1612556835
Port Elizabeth,-33.918,25.5701,21.0,94,90,4.12,ZA,1612557023
Tiznit Province,29.5833,-9.5,12.11,60,75,3.22,MA,1612556868
Busselton,-33.65,115.3333,14.44,77,84,0.45,AU,1612556758
Kamaishi,39.2667,141.8833,4.17,83,91,4.71,JP,1612557023
Barrow,71.2906,-156.7887,-19.0,71,90,4.63,US,1612556769
Kiomboi,-4.2667,34.3667,19.2,77,78,2.01,TZ,1612557023
Devils Lake,48.1128,-98.8651,-16.0,66,75,10.29,US,1612557023
Hasaki,35.7333,140.8333,2.0,93,75,2.06,JP,1612557023
Mitchell,43.7094,-98.0298,-7.0,53,1,6.69,US,1612557023
Muros,42.7762,-9.0603,11.67,79,100,4.47,ES,1612557023
Kapaa,22.0752,-159.319,21.11,60,1,1.54,US,1612556828
Tabas,33.5959,56.9244,10.0,22,18,3.09,IR,1612557024
Nikolskoye,59.7035,30.7861,-11.11,78,75,5.0,RU,1612556758
Hurghada,27.2574,33.8129,20.0,45,0,7.72,EG,1612557024
San Jose,37.3394,-121.895,18.89,36,1,2.57,US,1612556940
Saint-Pierre,-21.3393,55.4781,26.0,65,0,2.57,RE,1612557024
Lüderitz,-26.6481,15.1594,22.82,50,0,10.07,NA,1612557024
Teya,60.3778,92.6267,-19.03,89,100,2.05,RU,1612556820
Okhotsk,59.3833,143.3,-18.77,86,99,3.67,RU,1612557024
Alice Springs,-23.7,133.8833,22.0,49,90,2.57,AU,1612556819
Mineiros,-17.5694,-52.5511,25.46,83,100,1.75,BR,1612557024
Esperance,-33.8667,121.9,14.0,94,40,2.57,AU,1612557025
Evensk,61.95,159.2333,-17.56,91,100,6.74,RU,1612557025
Artesia,33.8658,-118.0831,21.67,34,1,2.57,US,1612557025
Mēga,4.05,38.3,17.24,48,0,3.3,ET,1612557025
Moose Factory,51.2585,-80.6094,0.0,55,75,4.12,CA,1612556990
Hobart,-42.8794,147.3294,18.89,94,75,2.57,AU,1612556847
Palmas,-10.2128,-48.3603,30.0,70,40,3.6,BR,1612556734
Bluff,-46.6,168.3333,12.79,80,31,1.98,NZ,1612556832
Bambous Virieux,-20.3428,57.7575,26.0,78,40,3.09,MU,1612556776
Benemérito de las Américas,16.5167,-90.6439,31.99,35,0,1.74,MX,1612557026
Albany,42.6001,-73.9662,5.56,59,85,2.65,US,1612556959
Kaitangata,-46.2817,169.8464,13.33,75,100,2.68,NZ,1612556815
Ranong,9.9658,98.6348,23.35,87,39,1.8,TH,1612557026
Yulara,-25.2406,130.9889,19.0,34,0,3.6,AU,1612557026
Hamilton,39.1834,-84.5333,2.22,51,90,8.75,US,1612557026
Bengkulu,-3.8004,102.2655,24.54,85,70,2.48,ID,1612556837
Hirara,24.8,125.2833,20.53,59,10,2.55,JP,1612557026
Sosnovo-Ozerskoye,52.5249,111.5418,-22.82,88,98,3.28,RU,1612557027
Butaritari,3.0707,172.7902,27.34,82,83,7.47,KI,1612557027
Tūkrah,32.5341,20.5791,14.32,74,0,2.29,LY,1612557027
Sydney,-33.8679,151.2073,24.0,73,0,4.63,AU,1612556870
Abbeville,50.1,1.8333,7.78,82,100,0.54,FR,1612557003
Puerto Ayora,-0.7393,-90.3518,31.0,62,0,2.57,EC,1612557027
Mar del Plata,-38.0023,-57.5575,24.0,46,0,4.12,AR,1612556831
Jamestown,42.097,-79.2353,-2.78,63,90,9.77,US,1612556828
Marzuq,14.4,46.4667,14.67,61,0,3.27,YE,1612556837
Hithadhoo,-0.6,73.0833,28.1,76,99,4.88,MV,1612557027
Mapastepec,15.4333,-92.9,30.49,45,13,3.54,MX,1612557027
Gaoyou,32.7858,119.4278,5.56,94,0,4.45,CN,1612557027
Hofn,64.2539,-15.2082,2.65,79,100,5.69,IS,1612557028
Isangel,-19.55,169.2667,27.0,78,20,0.71,VU,1612556820
Qaqortoq,60.7167,-46.0333,-7.0,45,1,0.51,GL,1612557028
Markivka,49.5229,39.5705,-5.88,88,17,6.71,UA,1612557028
Srandakan,-7.9386,110.2506,24.15,87,75,2.29,ID,1612557028
Bariloche,-41.1456,-71.3082,36.11,20,0,2.57,AR,1612556757
Bredasdorp,-34.5322,20.0403,20.0,83,15,1.54,ZA,1612557028
Dickinson,29.4608,-95.0513,10.56,87,90,6.17,US,1612556911
Hong Kong,22.2855,114.1577,18.33,76,0,1.8,HK,1612557001
Ozernovskiy,51.5,156.5167,-11.06,85,98,2.81,RU,1612557028
Castro,-24.7911,-50.0119,23.92,58,0,2.51,BR,1612556904
Port Alfred,-33.5906,26.891,21.11,94,94,7.25,ZA,1612557028
Bethel,41.3712,-73.414,4.44,75,40,1.54,US,1612557029
Seoul,37.5683,126.9778,4.0,75,75,2.57,KR,1612557029
Rundu,-17.9333,19.7667,20.59,88,100,1.92,NA,1612557029
Avarua,-21.2078,-159.775,29.0,70,20,4.12,CK,1612557029
Mahébourg,-20.4081,57.7,26.0,78,40,3.09,MU,1612556785
San Felipe,10.3399,-68.7425,25.2,78,89,3.73,VE,1612557029
Flin Flon,54.7682,-101.865,-27.0,63,20,7.72,CA,1612557029
Paramonga,-10.6667,-77.8333,23.58,68,12,4.93,PE,1612557029
Fukuechō,32.6881,128.8419,11.36,87,100,2.35,JP,1612557029
Ous,60.9058,61.5186,-14.43,95,100,4.55,RU,1612557030
Uyutnoye,45.1994,33.3014,3.33,72,100,1.16,UA,1612557030
Yellowknife,62.456,-114.3525,-35.0,68,20,4.12,CA,1612557030
Arlit,18.7369,7.3853,20.02,21,0,2.35,NE,1612557030
Islamkot,24.6997,70.177,15.93,30,0,2.76,PK,1612557031
Nabire,-3.3667,135.4833,24.06,77,100,1.3,ID,1612557031
Fenoarivo Atsinanana,-17.3667,49.4167,25.33,80,44,1.15,MG,1612557031
Rauma,61.1272,21.5113,-13.0,78,0,3.09,FI,1612557031
Los Llanos de Aridane,28.6585,-17.9182,16.0,48,20,6.17,ES,1612556768
Port Keats,-14.25,129.55,27.39,84,100,5.79,AU,1612557031
Knysna,-34.0363,23.0471,20.0,94,90,1.03,ZA,1612557031
Paris,48.8534,2.3488,10.0,87,100,1.54,FR,1612556283
Ténenkou,14.4572,-4.9169,26.12,16,69,2.2,ML,1612557031
Sørland,67.667,12.6934,1.92,83,77,9.33,NO,1612557031
Talnakh,69.4865,88.3972,-31.17,84,99,2.34,RU,1612556791
Cabo San Lucas,22.8909,-109.9124,28.33,29,20,3.6,MX,1612557031
Tura,25.5198,90.2201,16.06,46,0,1.2,IN,1612557031
San Cristobal,7.7669,-72.225,29.0,54,40,8.23,VE,1612556824
Iquitos,-3.7481,-73.2472,30.0,70,75,3.09,PE,1612557032
Raudeberg,61.9875,5.1352,-3.33,59,0,3.86,NO,1612557032
Am Timan,11.0297,20.2827,23.9,19,0,3.63,TD,1612557032
Chokurdakh,70.6333,147.9167,-23.22,89,100,6.5,RU,1612556827
Ambilobe,-13.2,49.05,23.67,91,53,1.42,MG,1612556860
Anadyr,64.75,177.4833,-18.0,78,0,8.0,RU,1612557032
Pevek,69.7008,170.3133,-27.12,86,75,0.7,RU,1612556771
Klaksvík,62.2266,-6.589,1.0,86,75,2.06,FO,1612556843
Hamamatsu,34.7,137.7333,7.78,62,100,0.45,JP,1612557032
Sarkand,45.41,79.9186,-0.11,78,93,1.93,KZ,1612557032
Airai,-8.9266,125.4092,16.59,100,100,1.76,TL,1612557033
Vardø,70.3705,31.1107,-2.0,80,75,4.63,NO,1612556805
Vila Velha,-20.3297,-40.2925,31.11,74,75,8.23,BR,1612557033
Ipixuna,-1.7625,-48.8043,30.0,74,40,4.63,BR,1612556897
Cockburn Town,21.4612,-71.1419,27.0,69,40,6.17,TC,1612557033
Darnah,32.767,22.6367,15.26,68,3,3.14,LY,1612557033
Santa Isabel,-23.3156,-46.2214,23.0,94,75,2.57,BR,1612557033
Dingle,10.9995,122.6711,23.69,90,100,2.96,PH,1612556888
Port Blair,11.6667,92.75,25.59,78,36,2.76,IN,1612556803
Nantucket,41.2835,-70.0995,7.0,93,90,8.23,US,1612557033
Tiksi,71.6872,128.8694,-29.36,88,100,5.36,RU,1612557033
Kiryat Gat,31.61,34.7642,16.11,100,43,2.96,IL,1612556750
Manta,-0.95,-80.7333,28.0,74,75,3.09,EC,1612557033
Dudinka,69.4058,86.1778,-33.74,84,98,3.0,RU,1612557034
Kurumkan,54.3,110.3,-22.56,80,20,1.27,RU,1612557034
Tuatapere,-46.1333,167.6833,14.59,80,99,0.35,NZ,1612556768
São Gabriel,-30.3364,-54.32,22.87,63,1,3.52,BR,1612557034
Laas,46.6166,10.7002,3.89,86,0,1.46,IT,1612557034
Biltine,14.5333,20.9167,18.43,26,0,7.38,TD,1612557034
Saint Paul Harbor,57.79,-152.4072,-2.0,86,90,1.51,US,1612557034
Pisco,-13.7,-76.2167,26.0,61,0,6.69,PE,1612557034
Pangnirtung,66.1451,-65.7125,-10.0,79,90,2.57,CA,1612557035
Ýpsonas,34.6884,32.9574,12.0,87,0,2.06,CY,1612557035
Jiaojiang,28.6803,121.4428,15.56,89,91,1.1,CN,1612557035
Pahrump,36.2083,-115.9839,16.67,26,0,0.89,US,1612557035
Clyde River,70.4692,-68.5914,-27.0,76,90,6.17,CA,1612557035
Darhan,49.4867,105.9228,-16.98,87,98,0.63,MN,1612557035
Ziro,27.6333,93.8333,2.09,93,0,1.27,IN,1612557036
Sault Ste. Marie,46.5168,-84.3333,-6.0,79,90,6.17,CA,1612556861
Salalah,17.0151,54.0924,24.0,60,40,3.6,OM,1612557036
Pāvilosta,56.8879,21.1859,-10.0,85,40,1.54,LV,1612557036
Soe,-9.8607,124.284,19.36,100,100,1.9,ID,1612557036
Severo-Kuril'sk,50.6789,156.125,-11.34,82,44,3.21,RU,1612556894
Comodoro Rivadavia,-45.8667,-67.5,19.0,52,0,6.69,AR,1612556887
Lázaro Cárdenas,17.9583,-102.2,27.61,62,1,3.63,MX,1612556847
Bandar-e Lengeh,26.5579,54.8807,19.34,57,0,4.69,IR,1612557036
Moussoro,13.6408,16.4901,21.05,22,0,6.42,TD,1612557036
Upernavik,72.7868,-56.1549,-15.7,73,86,1.83,GL,1612556830
Tautira,-17.7333,-149.15,27.78,65,55,0.89,PF,1612556753
São Filipe,14.8961,-24.4956,21.63,74,72,7.95,CV,1612556863
Cidreira,-30.1811,-50.2056,22.29,66,29,7.6,BR,1612557036
Cherskiy,68.75,161.3,-25.93,77,0,1.65,RU,1612556873
Voh,-20.9667,164.7,26.48,78,18,1.08,NC,1612557037
San Patricio,28.017,-97.5169,18.0,55,90,4.63,US,1612556840
Lufilufi,-13.8745,-171.5986,23.0,94,90,5.14,WS,1612556870
Katsuura,35.1333,140.3,6.11,65,75,4.12,JP,1612557037
Baruun-Urt,46.6806,113.2792,-16.92,89,96,2.65,MN,1612557037
George Town,5.4112,100.3354,28.0,78,20,1.54,MY,1612556767
Kieta,-6.2167,155.6333,27.4,78,44,2.32,PG,1612557037
Katobu,-4.9408,122.5276,23.76,91,97,0.69,ID,1612557037
Henties Bay,-22.116,14.2845,18.33,89,18,1.34,NA,1612556766
Undory,54.6085,48.3928,-5.0,80,90,6.0,RU,1612557037
Severobaykal'sk,55.65,109.3167,-18.7,84,95,2.05,RU,1612557037
Gemeente Wageningen,51.9667,5.6667,8.33,100,75,2.06,NL,1612557038
Araceli,10.5529,119.9913,26.85,84,100,9.59,PH,1612557038
Makokou,0.5738,12.8642,22.73,87,0,1.09,GA,1612557038
Faanui,-16.4833,-151.75,27.36,65,3,2.14,PF,1612557038
Bilibino,68.0546,166.4372,-27.88,78,0,1.98,RU,1612557038
Dukat,62.55,155.55,-30.88,85,91,0.9,RU,1612557038
Waldshut-Tiengen,47.6232,8.2172,7.78,100,100,0.45,DE,1612557038
Zlobin,45.2924,14.6541,12.0,87,75,1.54,HR,1612557039
Port Lincoln,-34.7333,135.8667,17.45,80,84,8.93,AU,1612557039
Saint George,37.1041,-113.5841,12.22,31,1,2.48,US,1612556964
Chulym,55.0997,80.9572,-9.63,97,88,2.38,RU,1612557039
Nadym,65.5333,72.5167,-24.87,90,100,5.14,RU,1612557039
Rosetta,31.4044,30.4164,17.0,72,40,4.12,EG,1612557039
Chingirlau,51.095,54.0814,0.76,94,100,4.89,KZ,1612557039
St. George's,12.0564,-61.7485,29.0,61,20,10.29,GD,1612557039
Ilulissat,69.2167,-51.1,-13.0,40,1,4.12,GL,1612556827
New Norfolk,-42.7826,147.0587,18.89,92,100,0.45,AU,1612556751
Tutóia,-2.7619,-42.2744,30.0,66,0,8.75,BR,1612557039
Fortuna,40.5982,-124.1573,12.22,87,40,4.12,US,1612556778
Faya,18.3851,42.4509,14.0,50,20,7.72,SA,1612557040
Ocampo,21.65,-101.5,24.9,15,0,7.49,MX,1612557040
Alyangula,-13.8483,136.4192,27.0,89,90,5.14,AU,1612557040
Makakilo City,21.3469,-158.0858,23.0,56,75,2.06,US,1612557040
Palmer,42.1584,-72.3287,4.44,75,75,3.6,US,1612556810
Khatanga,71.9667,102.5,-36.22,78,13,3.38,RU,1612557041
Canguaretama,-6.38,-35.1289,29.0,65,20,5.66,BR,1612556896
Goderich,43.7501,-81.7165,-6.0,79,100,10.29,CA,1612557042
Charters Towers,-20.1,146.2667,22.37,88,13,3.37,AU,1612556846
Ponta do Sol,32.6667,-17.1,10.56,67,34,3.13,PT,1612556859
Ketchikan,55.3422,-131.6461,3.0,87,40,0.62,US,1612557042
Nagato,34.3833,131.2,8.0,81,75,2.06,JP,1612557042
Bhainsdehi,21.6467,77.6325,14.43,58,0,3.7,IN,1612557042
Divnomorskoye,44.5011,38.1353,3.01,76,35,1.03,RU,1612557042
Nederland,29.9744,-93.9924,9.0,87,90,4.12,US,1612557042
Karasuk,53.7377,78.0403,-2.24,99,100,3.34,RU,1612557042
Mana,5.6592,-53.7767,26.31,79,41,6.03,GF,1612556888
Dąbrowa Tarnowska,50.1746,20.9863,-0.56,88,100,4.17,PL,1612557042
Chengde,40.9725,117.9361,-2.36,92,0,1.98,CN,1612557043
Kushima,31.4583,131.2333,9.0,93,90,1.54,JP,1612556817
Najrān,17.4924,44.1277,20.0,24,0,2.06,SA,1612557043
Luau,-10.7073,22.2247,19.6,88,99,0.97,AO,1612557043
Tornio,65.8481,24.1466,-17.0,92,0,2.06,FI,1612557043
Banda Aceh,5.5577,95.3222,25.28,83,11,3.76,ID,1612556897
Bridgton,44.0548,-70.7128,-0.56,85,100,1.27,US,1612557043
San Martín,-33.081,-68.4681,33.0,19,0,2.57,AR,1612557044
Dzhebariki-Khaya,62.2167,135.8,-36.14,82,100,0.39,RU,1612557044
Belaya Gora,68.5333,146.4167,-27.07,89,100,3.25,RU,1612556813
Yanam,16.7333,82.2167,17.75,78,56,0.84,IN,1612557044
Longyearbyen,78.2186,15.6401,-6.0,86,90,8.23,SJ,1612557044
Fallon,39.4735,-118.7774,11.11,37,75,2.06,US,1612557044
Nemuro,43.3236,145.575,-1.69,97,100,6.42,JP,1612557044
Torbay,47.6666,-52.7314,3.89,100,75,11.32,CA,1612557044
Gamboula,4.1178,15.1393,24.35,24,35,1.58,CF,1612557044
Roura,4.7263,-52.3274,27.0,83,75,4.12,GF,1612557044
Ukiah,39.1502,-123.2078,16.11,41,1,0.76,US,1612556829
Kysyl-Syr,63.8986,122.7617,-41.45,78,15,1.8,RU,1612557044
Santa Cruz de la Sierra,-17.8,-63.1667,32.0,37,40,5.14,BO,1612556790
Bahía Blanca,-38.7196,-62.2724,36.65,10,0,2.93,AR,1612557044
Anloga,5.7947,0.8973,29.0,84,20,5.14,GH,1612557044
Ponta Delgada,37.7333,-25.6667,13.33,71,40,3.09,PT,1612556781
Saskylakh,71.9167,114.0833,-32.97,85,94,3.16,RU,1612557045
Celestún,20.8667,-90.4,27.51,53,0,2.6,MX,1612557045
Contai,21.7786,87.7536,17.62,55,0,3.19,IN,1612557045
Juneau,58.3019,-134.4197,-6.0,93,90,1.85,US,1612557045
Itarema,-2.9248,-39.9167,26.34,77,18,5.83,BR,1612557045
Iqaluit,63.7506,-68.5145,-5.0,80,75,11.83,CA,1612556804
Arcata,40.8665,-124.0828,12.78,76,1,3.6,US,1612557003
Asău,46.4333,26.4,1.67,75,100,0.96,RO,1612556769
Qax,41.4225,46.9242,8.0,66,75,1.03,AZ,1612557045
Beringovskiy,63.05,179.3167,-21.8,89,100,5.26,RU,1612557045
Nanortalik,60.1432,-45.2371,-6.42,75,0,1.38,GL,1612557045
Kyra,49.5776,111.9753,-20.94,83,5,2.97,RU,1612557045
Half Moon Bay,37.4636,-122.4286,18.33,58,1,1.51,US,1612556862
Santa Isabel Rio Negro,-0.4139,-65.0192,28.7,79,100,1.22,BR,1612556875
Hilo,19.7297,-155.09,24.0,60,75,2.06,US,1612557046
Marawi,7.9986,124.2928,22.22,92,87,3.13,PH,1612557046
Kirakira,-10.4544,161.9205,27.35,80,66,3.56,SB,1612557046
Simbahan,6.3032,120.5836,27.21,79,100,3.31,PH,1612557046
San Alberto,7.7611,-73.3922,34.73,40,100,1.26,CO,1612557046
Chiredzi,-21.05,31.6667,24.07,91,100,3.38,ZW,1612557046
Inhambane,-23.865,35.3833,26.43,86,100,3.71,MZ,1612557046
Balkhash,46.844,74.9804,-4.3,98,100,2.87,KZ,1612557046
Lengshuijiang,27.6881,111.4294,7.23,89,0,0.24,CN,1612557046
Porto-Novo,6.4965,2.6036,30.0,79,20,5.14,BJ,1612557046
Mergen,49.1833,125.2167,-28.18,85,0,0.91,CN,1612557046
Rozsypne,48.1497,38.5762,-5.02,85,0,6.1,UA,1612557047
Sur,22.5667,59.5289,17.9,67,0,2.09,OM,1612556881
Bǝrdǝ,40.3744,47.1267,11.83,52,31,9.76,AZ,1612557047
Lebu,-37.6167,-73.65,18.83,71,3,5.96,CL,1612556762
Abagur,53.7308,87.2526,-8.3,96,100,1.22,RU,1612557047
Teknāf,20.8624,92.3058,15.54,68,11,2.09,BD,1612557047
Lishu,43.3047,124.3278,-10.74,95,87,1.85,CN,1612557047
Santa Lucía,27.9117,-15.5407,15.56,62,75,5.14,ES,1612557047
Valle Hermoso,25.6667,-97.8333,22.0,83,90,6.69,MX,1612557005
Oksbøl,55.6268,8.2876,-2.78,80,90,6.17,DK,1612557047
La Asuncion,11.0333,-63.8628,25.98,77,15,8.1,VE,1612557047
Betioky,-23.7167,44.3833,24.8,87,100,1.37,MG,1612557029
Praia,14.9215,-23.5087,21.0,68,75,7.2,CV,1612556806
Coruripe,-10.1256,-36.1756,26.61,74,55,8.5,BR,1612557047
Los Lunas,34.8062,-106.7334,11.67,23,1,2.57,US,1612557047
Umm Kaddadah,13.6017,26.6876,17.07,29,0,7.38,SD,1612556838
Iquique,-20.2208,-70.1431,23.0,64,0,5.66,CL,1612556781
Srednekolymsk,67.45,153.6833,-30.64,85,1,2.09,RU,1612557047
Votice,49.6401,14.6381,4.44,97,100,1.79,CZ,1612557047
Kholodnyy,62.7167,147.95,-26.23,86,100,1.14,RU,1612557048
North Bend,43.4065,-124.2243,11.11,100,90,4.12,US,1612556882
Port-Gentil,-0.7193,8.7815,27.0,89,20,3.09,GA,1612556775
Pinega,64.7001,43.3936,-22.3,88,100,5.25,RU,1612557048
Kavieng,-2.5744,150.7967,27.02,77,99,4.0,PG,1612557048
Bondoukou,8.0333,-2.8,30.28,35,78,1.57,CI,1612557048
Aykino,62.2248,49.9922,-17.85,92,100,5.29,RU,1612557048
Lavrentiya,65.5833,-171.0,-16.72,92,100,7.27,RU,1612556755
Shache,38.4167,77.2406,-2.34,83,0,0.98,CN,1612557048
Dandong,40.1292,124.3947,-3.24,97,77,1.26,CN,1612557048
Dunedin,-45.8742,170.5036,13.89,72,100,9.39,NZ,1612556839
Sompeta,18.9333,84.6,19.79,55,0,1.7,IN,1612557048
Bairiki Village,1.3292,172.9752,27.0,83,75,3.6,KI,1612557048
Kyzyl-Suu,42.3414,78.0056,-2.58,73,98,3.46,KG,1612557048
Tinqueux,49.25,3.9833,8.0,93,0,2.06,FR,1612557048
Huarmey,-10.0681,-78.1522,23.96,64,81,5.04,PE,1612557048
Eyl,7.9803,49.8164,22.32,78,4,5.48,SO,1612557048
Luís Correia,-2.8792,-41.6669,30.0,66,0,8.75,BR,1612557049
Honningsvåg,70.9821,25.9704,0.0,64,75,9.77,NO,1612557049
Aksarka,66.5606,67.7975,-29.16,87,100,5.55,RU,1612557049
Russell,32.3502,-85.1999,14.0,33,75,4.12,US,1612557049
Kungurtug,50.5994,97.5228,-20.26,85,71,0.71,RU,1612557049
Jalu,29.0331,21.5482,13.28,58,0,1.47,LY,1612556856
Arak,34.0917,49.6892,7.38,68,79,1.31,IR,1612557049
Tsimmerbude,54.675,20.1347,-9.0,86,75,4.0,RU,1612556951
Westport,41.1415,-73.3579,7.0,70,20,2.57,US,1612556807
Kostino,58.9097,53.2691,1.74,97,100,3.85,RU,1612557050
Ossora,59.2353,163.0719,-17.41,91,25,2.18,RU,1612557050
Ciudad del Carmen,18.6333,-91.8333,29.0,54,1,2.57,MX,1612557050
Bloomfield,40.8068,-74.1854,9.0,65,75,1.54,US,1612556917
Ixtapa,20.7,-105.2,24.0,69,1,4.63,MX,1612556795
Berekum,7.4534,-2.584,27.88,59,41,3.13,GH,1612557050
Santa Ana,33.7456,-117.8678,21.11,48,1,2.57,US,1612556794
Carnarvon,-24.8667,113.6333,27.0,79,90,10.8,AU,1612556850
Moïssala,8.3404,17.7663,25.93,18,21,2.07,TD,1612557050
Ulcinj,41.9294,19.2244,10.0,93,94,1.03,ME,1612557050
São Pedro do Sul,-29.6206,-54.1789,24.0,53,75,3.09,BR,1612557050
Tasiilaq,65.6145,-37.6368,-4.0,58,75,1.54,GL,1612557050
Codrington,-38.2667,141.9667,12.04,90,3,5.1,AU,1612556863
Dalby,-27.1833,151.2667,18.0,94,0,3.6,AU,1612557050
Kautokeino,69.0125,23.0412,-9.02,93,63,4.73,NO,1612557050
Paamiut,61.994,-49.6678,-6.25,78,0,3.82,GL,1612557050
Riyadh,24.6877,46.7219,21.0,19,20,4.63,SA,1612557050
Tabou,4.423,-7.3528,26.11,89,35,3.34,CI,1612557050
Vicuña,-30.0319,-70.7081,30.0,27,0,1.34,CL,1612557051
Shingū,33.7333,135.9833,7.91,74,90,2.58,JP,1612556757
Addis Ababa,9.025,38.7469,16.41,44,97,1.08,ET,1612557051
Tessalit,20.1986,1.0114,23.37,17,51,5.92,ML,1612557051
Bandarbeyla,9.4942,50.8122,23.32,71,25,5.37,SO,1612557051
Mount Isa,-20.7333,139.5,27.0,69,90,6.17,AU,1612556772
Pasni,25.2631,63.471,18.98,46,0,2.88,PK,1612557051
Jensen Beach,27.2545,-80.2298,27.0,36,20,5.66,US,1612557051
Petawawa,45.9001,-77.3328,1.11,64,90,5.66,CA,1612557051
College,64.8569,-147.8028,-22.22,76,75,3.09,US,1612557051
Brownwood,31.7093,-98.9912,15.0,31,1,4.12,US,1612557051
Esil,51.9556,66.4042,0.68,97,82,5.4,KZ,1612557052
Bose,45.4612,8.0137,7.78,96,97,0.58,IT,1612557052
Emirdağ,39.0197,31.15,6.68,61,0,1.93,TR,1612557052
Haines Junction,60.7522,-137.5108,-27.0,52,100,0.8,CA,1612557052
Maniitsoq,65.4167,-52.9,-9.46,73,95,2.06,GL,1612556797
Sinnamary,5.3833,-52.95,25.67,84,59,6.39,GF,1612557052
Trairi,-3.2778,-39.2689,26.3,76,6,4.34,BR,1612557052
Steinbach am Taunus,50.1667,8.5667,7.0,93,75,2.57,DE,1612557052
Balclutha,-46.2339,169.75,13.33,74,63,1.34,NZ,1612557052
Gigmoto,13.7796,124.39,25.5,85,97,3.44,PH,1612557053
Bulgan,48.8125,103.5347,-17.22,92,83,0.89,MN,1612556777
Atar,20.5169,-13.0499,17.82,41,99,2.73,MR,1612557053
Preobrazheniye,42.9019,133.9064,-4.08,92,76,2.89,RU,1612557053
Pedernales,18.0384,-71.744,29.0,60,18,4.51,DO,1612557053
Guerrero Negro,27.9769,-114.0611,20.23,39,0,6.07,MX,1612556792
Tucupita,9.0622,-62.051,28.21,66,97,3.3,VE,1612557054
Bereket,39.2446,55.5154,14.69,37,100,5.65,TM,1612557054
Amapá,1.0,-52.0,24.95,95,100,1.62,BR,1612557054
Gizo Government Station,-8.103,156.8419,28.51,74,19,4.47,SB,1612557054
Dicabisagan,17.0818,122.4157,23.1,84,75,2.61,PH,1612557054
Buala,-8.145,159.5921,26.9,79,49,4.22,SB,1612556844
Russellville,35.2784,-93.1338,13.33,28,1,2.06,US,1612557054
Ligayan,4.6533,119.4706,26.36,83,100,4.28,PH,1612557054
Chicama,-7.8447,-79.1469,22.0,83,75,5.14,PE,1612557054
Binzhou,37.3667,118.0167,10.0,44,0,0.45,CN,1612557054
Naryan-Mar,67.6713,53.087,-24.42,90,50,5.05,RU,1612557054
Progreso,21.2833,-89.6667,32.22,37,1,6.17,MX,1612556894
Marsá Maţrūḩ,31.3525,27.2453,16.0,77,40,5.14,EG,1612557055
Townsville,-19.25,146.8,26.0,83,89,2.57,AU,1612557055
Leshukonskoye,64.8989,45.7622,-24.37,88,100,4.31,RU,1612556842
Ostrovnoy,68.0531,39.5131,-10.94,92,100,5.33,RU,1612557055
Guadalupe y Calvo,26.1,-106.9667,18.27,24,28,4.04,MX,1612557055
Ruteng,-8.6136,120.4721,17.39,100,100,0.75,ID,1612557055
Tilichiki,60.4667,166.1,-19.22,94,100,4.44,RU,1612557055
Puerto Cabezas,14.0351,-83.3888,28.0,89,20,2.06,NI,1612557055
Salinópolis,-0.6136,-47.3561,27.4,75,14,5.09,BR,1612557055
Charlestown,-32.95,151.6667,23.33,84,100,4.08,AU,1612557030
Northam,51.0333,-4.2167,4.44,91,42,0.89,GB,1612557055
Hondomachi-hondo,32.45,130.2,8.89,81,100,2.68,JP,1612556901
Caravelas,-17.7125,-39.2481,26.89,79,98,6.83,BR,1612557056
Ugoofaaru,5.6667,73.0,27.6,75,100,4.64,MV,1612557056
Safaga,26.7292,33.9365,20.0,45,0,7.72,EG,1612557056
Cayenne,4.9333,-52.3333,27.0,83,75,4.12,GF,1612557056
Novallas,9.5125,123.1194,25.24,82,48,2.37,PH,1612557056
Dingalan,15.3897,121.3929,23.4,82,90,3.03,PH,1612557056
General Cepeda,25.3833,-101.45,25.0,23,1,6.17,MX,1612557056
Usinsk,65.9939,57.5281,-25.74,88,91,5.52,RU,1612557056
Mezen',65.8522,44.24,-22.43,88,23,4.72,RU,1612557056
Vero Beach,27.6386,-80.3973,26.0,38,1,6.17,US,1612557001
Clarence Town,-32.5833,151.7833,23.33,78,100,3.6,AU,1612557057
Makar'yev,57.8797,43.8069,-14.64,94,100,4.18,RU,1612557057
Road Town,18.4167,-64.6167,28.0,65,40,5.14,VG,1612557057
Zyryanskoye,56.8306,86.6258,-13.86,93,100,2.6,RU,1612557057
Okato,-39.2,173.8833,14.44,64,50,4.92,NZ,1612557057
Kavaratti,10.5669,72.642,26.92,78,0,5.8,IN,1612556838
Nouadhibou,20.931,-17.0347,18.0,77,0,4.63,MR,1612557057
Methven,-43.6333,171.65,13.33,81,100,2.68,NZ,1612557057
Manokwari,-0.8667,134.0833,25.42,74,100,2.04,ID,1612556855
Sistranda,63.7256,8.834,-6.0,86,75,6.69,NO,1612557057
Wankyi,7.7392,-2.1046,31.83,36,99,2.57,GH,1612556822
Praia da Vitória,38.7333,-27.0667,14.0,82,75,5.83,PT,1612557057
Belyy Yar,53.6039,91.3903,-16.0,85,98,0.97,RU,1612557057
Severodvinsk,64.5635,39.8302,-17.0,71,75,4.0,RU,1612557058
Tampere,61.4991,23.7871,-15.0,78,0,1.54,FI,1612556826
Egvekinot,66.3167,-179.1667,-23.32,93,100,8.41,RU,1612557058
Kushiro,42.975,144.3747,-2.87,98,100,3.16,JP,1612557058
Altay,47.8667,88.1167,-8.25,86,100,1.06,CN,1612557058
Tazovsky,67.4667,78.7,-37.94,82,37,1.42,RU,1612557058
Peniche,39.3558,-9.3811,12.22,86,98,5.81,PT,1612557058
Guangzhou,23.1167,113.25,17.78,82,0,1.0,CN,1612557058
Bella Union,-30.2752,-57.6007,26.75,46,0,4.5,UY,1612557058
Beaufort,5.3473,115.7455,26.0,89,20,2.57,MY,1612556912
Camacha,33.0833,-16.3333,14.0,67,40,7.72,PT,1612557058
Petropavlovsk-Kamchatskiy,53.0452,158.6483,-22.0,64,100,4.0,RU,1612556761
Hue,16.4667,107.6,18.0,100,20,1.54,VN,1612556876
Danielskuil,-28.1887,23.5395,23.33,43,0,3.65,ZA,1612557059
Obertyn,48.7003,25.1701,0.0,86,75,2.22,UA,1612557059
Lompoc,34.6391,-120.4579,17.0,55,1,5.14,US,1612556834
Nyandoma,61.669,40.1991,-20.2,92,100,4.14,RU,1612557059
Merauke,-8.4667,140.3333,26.21,87,95,7.17,ID,1612557059
Kayerkan,69.3497,87.7602,-33.6,84,99,1.42,RU,1612557059
Raja,8.4596,25.678,21.67,22,66,3.13,SS,1612557059
Maksatikha,57.797,35.8825,-15.95,93,100,3.78,RU,1612557059
Dryden,49.7833,-92.7503,-19.0,71,90,6.69,CA,1612556821
Vidalia,32.2177,-82.4135,15.0,72,90,1.54,US,1612556978
Alta Floresta,-9.8756,-56.0861,29.0,70,20,2.57,BR,1612557059
Constitución,-35.3333,-72.4167,18.3,69,49,2.78,CL,1612556779
Dhārchula,29.85,80.5333,4.97,65,71,2.29,IN,1612557059
Xining,36.6167,101.7667,-5.52,57,100,0.91,CN,1612557059
Indianola,41.3581,-93.5574,-6.11,54,35,5.42,US,1612557060
Saint-Leu,-21.15,55.2833,26.0,65,0,2.57,RE,1612557060
Kismayo,-0.3582,42.5454,24.89,84,0,6.08,SO,1612557060
Trofors,65.5333,13.4063,-16.0,85,0,1.54,NO,1612557060
Kununurra,-15.7667,128.7333,25.0,64,40,4.78,AU,1612557060
Balaipungut,1.05,101.2833,22.31,91,99,0.3,ID,1612557060
Catalina,32.5056,-110.9211,18.89,23,0,0.45,US,1612556986
Boyolangu,-8.1181,111.8935,23.31,89,97,3.28,ID,1612557060
Ondjiva,-17.0667,15.7333,24.61,46,66,1.92,AO,1612557060
Amalāpuram,16.5833,82.0167,18.08,78,42,1.22,IN,1612556882
Colares,38.7992,-9.4469,12.78,93,20,4.63,PT,1612557060
Surdulica,42.6906,22.1708,8.89,94,0,1.87,RS,1612557060
Tuy Hoa,13.0833,109.3,20.81,89,67,2.31,VN,1612557060
Pirenópolis,-15.8525,-48.9592,25.0,73,40,2.06,BR,1612557061
Ayagoz,47.9714,80.4392,-6.98,91,100,2.21,KZ,1612557061
Emporia,38.4039,-96.1817,11.0,28,1,6.69,US,1612557061
Coahuayana Viejo,18.7333,-103.6833,27.0,61,20,3.09,MX,1612557061
Asahikawa,43.7678,142.3703,-3.49,96,100,2.55,JP,1612557061
São João da Barra,-21.6403,-41.0511,28.0,65,0,5.14,BR,1612557061
Barra do Garças,-15.89,-52.2567,29.0,74,75,2.06,BR,1612556840
Xai-Xai,-25.0519,33.6442,26.08,84,99,3.78,MZ,1612557061
Chui,-33.6971,-53.4616,19.91,68,24,5.94,UY,1612557061
Lucé,48.4369,1.4636,8.89,92,100,0.45,FR,1612557061
Ibatiba,-20.2339,-41.5106,22.93,86,100,1.7,BR,1612557061
Lima,-12.0432,-77.0282,25.0,73,75,5.66,PE,1612556773
Bathsheba,13.2167,-59.5167,27.0,57,40,10.29,BB,1612556833
Palembang,-2.9167,104.7458,22.89,96,63,1.75,ID,1612557062
Bubaque,11.2833,-15.8333,25.27,72,88,10.11,GW,1612557062
Nīlēshwar,12.25,75.1,24.31,69,0,3.93,IN,1612557062
Karwar,14.8,74.1333,22.56,64,0,2.89,IN,1612557062
Miramar,25.9873,-80.2323,26.11,38,40,2.57,US,1612556809
Forestville,38.8451,-76.875,13.0,40,40,4.63,US,1612557062
Mazagão,-0.115,-51.2894,33.0,62,40,5.14,BR,1612557062
Ashland,40.8167,-82.2665,-4.0,58,90,8.23,US,1612557062
Narsaq,60.9167,-46.05,-7.0,45,1,0.51,GL,1612557062
Okha,53.5739,142.9478,-21.86,90,100,8.38,RU,1612557062
Pochutla,15.7432,-96.4661,28.33,69,75,7.72,MX,1612556820
Xichang,27.8964,102.2634,4.74,68,0,0.48,CN,1612557063
Makaha,21.4694,-158.2175,23.0,73,1,4.12,US,1612557063
Sabancuy,18.9667,-91.1833,30.13,43,0,1.15,MX,1612557063
Houston,29.7633,-95.3633,10.0,93,90,4.12,US,1612557010
Saint Anthony,45.0205,-93.218,-11.67,56,40,7.2,US,1612556806
Rabak,13.1809,32.74,18.13,26,0,5.87,SD,1612557064
Berlevåg,70.8578,29.0864,-2.0,64,75,9.26,NO,1612557064
Beyneu,45.3167,55.2,7.74,60,100,4.5,KZ,1612556900
Oranjestad,12.524,-70.027,29.0,65,40,10.8,AW,1612556894
Tombouctou,20.0,-3.0,27.38,14,100,3.45,ML,1612557064
Aklavik,68.2191,-135.0107,-37.0,67,20,2.06,CA,1612556871
Kruisfontein,-34.0033,24.7314,22.78,80,39,1.34,ZA,1612556824
Huntsville,34.7304,-86.5861,10.0,40,1,2.06,US,1612556808
Sovetskiy,61.3614,63.5842,-9.04,97,100,2.96,RU,1612557064
Béoumi,7.6736,-5.5764,32.0,43,80,3.09,CI,1612557064
Havre-St-Pierre,50.2334,-63.5986,1.0,86,90,4.63,CA,1612557064
Ţahţā,26.7693,31.5021,16.0,55,0,4.63,EG,1612557064
Gaya,24.7833,85.0,15.0,82,75,2.06,IN,1612557064
Waipawa,-41.4122,175.5153,15.56,72,90,5.66,NZ,1612557064
Albanel,48.8832,-72.4487,-8.0,93,100,2.37,CA,1612557064
Melito di Porto Salvo,37.9222,15.7714,15.56,82,93,3.09,IT,1612557064
Hambantota,6.1241,81.1185,25.31,75,100,6.58,LK,1612557065
Barra de Tecoanapa,16.5167,-98.75,28.28,63,27,4.74,MX,1612557065
Tyubuk,56.0552,60.9405,1.37,98,100,5.26,RU,1612557065
Husavik,66.0449,-17.3389,-5.0,80,0,2.06,IS,1612556888
Norman Wells,65.282,-126.8329,-32.0,68,75,5.14,CA,1612557065
The Pas,53.8251,-101.2541,-25.0,64,1,7.2,CA,1612557065
Zatoka,46.0725,30.4654,2.0,80,75,0.82,UA,1612557065
Dali,25.7,100.1833,6.09,62,0,1.59,CN,1612557065
Arrondissement du Havre,49.5833,0.3333,8.0,93,75,1.54,FR,1612557066
Saint-Joseph,-21.3667,55.6167,26.0,65,0,2.57,RE,1612557066
Deputatsky,69.3,139.9,-34.68,86,83,0.37,RU,1612557066
Gopālpur,19.2667,84.9167,18.81,65,1,1.99,IN,1612557066
Sicamous,50.8331,-118.9856,5.0,70,93,1.03,CA,1612557066
Prainha,-1.8,-53.48,32.37,48,72,2.64,BR,1612557066
Osakarovka,50.565,72.5692,-2.01,98,97,4.32,KZ,1612557066
Ust-Tsilma,65.441,52.1498,-25.12,87,100,4.06,RU,1612557066
Leningradskiy,69.3833,178.4167,-24.55,87,100,3.63,RU,1612557066
Taoudenni,22.6783,-3.9836,28.7,12,82,4.76,ML,1612556876
Namatanai,-3.6667,152.4333,25.93,85,94,4.37,PG,1612557066
Harper,4.375,-7.7169,26.29,89,0,3.36,LR,1612557066
Mitú,1.1983,-70.1733,28.28,89,88,1.26,CO,1612556876
Solwezi,-12.1688,26.3894,17.72,95,100,1.49,ZM,1612557066
Santa Vitória do Palmar,-33.5189,-53.3681,19.96,70,38,5.68,BR,1612557067
Naze,28.3667,129.4833,16.06,76,45,5.49,JP,1612557067
Newcastle,-32.9272,151.7765,23.33,78,100,3.6,AU,1612556821
Seymchan,62.8833,152.4333,-31.13,84,86,0.8,RU,1612557067
Yinchuan,38.4681,106.2731,1.11,68,1,2.74,CN,1612557067
Strzelce Krajeńskie,52.8773,15.5298,0.0,70,100,5.0,PL,1612557067
Karasjok,69.4719,25.5112,-3.0,86,75,9.26,NO,1612557067
Bolshaya Sosnova,57.6713,54.6029,2.28,98,100,6.98,RU,1612557067
Alofi,-19.0595,-169.9187,24.0,94,90,5.14,NU,1612557067
Sumbe,-11.2061,13.8437,24.96,81,48,3.49,AO,1612556899
Sioux Lookout,50.1001,-91.917,-20.0,71,90,5.14,CA,1612556819
Derzhavīnsk,51.1,66.3167,0.8,96,99,5.55,KZ,1612557067
Assiut,27.181,31.1837,14.0,82,0,4.12,EG,1612557067
Manavālakurichi,8.1333,77.3,27.0,74,20,4.02,IN,1612557067
Kiunga,-6.1219,141.2906,23.18,96,100,0.67,PG,1612557068
Doka,13.5167,35.7667,18.84,24,2,5.97,SD,1612557068
Karratha,-20.7377,116.8463,26.17,81,21,4.2,AU,1612557068
Budogoshch',59.2816,32.4707,-15.17,94,98,2.75,RU,1612557068
Yangi Marg`ilon,40.4272,71.7189,4.0,45,100,1.03,UZ,1612557068
Coolum Beach,-26.5333,153.1,22.22,92,75,0.89,AU,1612557068
Andenes,69.3143,16.1194,1.0,64,40,11.32,NO,1612557068
Corinth,37.9407,22.9573,15.0,87,0,1.0,GR,1612557068
Dubai,25.2582,55.3047,21.67,43,0,3.09,AE,1612556887
Salekhard,66.53,66.6019,-28.6,87,100,6.16,RU,1612556829
Santa Maria,-29.6842,-53.8069,24.0,53,75,3.09,BR,1612556816
Port-Cartier,50.0334,-66.8654,1.11,86,100,3.6,CA,1612556872
Kodinsk,58.6881,99.1844,-17.76,92,99,1.8,RU,1612557068
Grindavik,63.8424,-22.4338,3.0,75,75,8.23,IS,1612556949
Agadez,19.75,10.25,17.42,27,0,2.81,NE,1612557068
Eydhafushi,5.1033,73.0708,27.36,75,49,4.17,MV,1612557068
Wuwei,37.9281,102.6414,0.0,35,0,1.53,CN,1612556886
Wakkanai,45.4094,141.6739,-3.95,98,100,1.31,JP,1612557068
Zhengjiatun,43.5064,123.5064,-12.68,90,1,2.11,CN,1612557069
Touros,-5.1989,-35.4608,29.0,61,0,5.14,BR,1612556862
Corner Brook,48.9667,-57.9484,1.0,93,90,2.06,CA,1612557069
Pathein,16.7833,94.7333,21.45,91,0,3.14,MM,1612557069
La Ronge,55.1001,-105.2842,-28.0,57,88,4.63,CA,1612556851
Boa Vista,2.8197,-60.6733,31.0,51,90,6.17,BR,1612556857
Bethanien,-26.502,17.1583,29.0,15,0,5.03,NA,1612557070
Gerede,40.8008,32.1969,1.91,82,34,2.11,TR,1612557070
Syas'stroy,60.1367,32.5691,-13.96,92,98,4.78,RU,1612557070
Mackenzie,55.2999,-123.1698,-9.0,92,90,3.09,CA,1612557070
Zhangye,38.9342,100.4517,-2.61,64,0,1.46,CN,1612557070
Zabaykal'sk,49.6333,117.3167,-21.02,86,18,3.46,RU,1612557070
Makkah al Mukarramah,21.4267,39.8261,17.85,58,7,2.03,SA,1612557070
Mount Gambier,-37.8333,140.7667,12.0,94,40,3.09,AU,1612557070
Noshiro,40.2039,140.0242,6.94,72,91,7.06,JP,1612556838
Burayevo,55.8407,55.4083,1.61,96,100,8.74,RU,1612557070
Kuala Lipis,4.1842,102.0468,21.82,96,93,0.58,MY,1612557071
Eyemouth,55.8713,-2.0901,3.33,97,100,3.13,GB,1612557071
Natalio,-26.7167,-55.0833,27.08,39,0,2.67,PY,1612557071
Liwale,-9.7667,37.9333,21.2,97,22,0.85,TZ,1612557071
Vertientes,21.2594,-78.1464,30.0,48,75,2.06,CU,1612556802
Ambon City,-3.6954,128.1814,27.15,78,92,2.71,ID,1612557071
Kangaatsiaq,68.3065,-53.4641,-12.93,82,12,5.19,GL,1612557071
Dromolaxia,34.8761,33.586,13.89,71,0,2.06,CY,1612557071
