City,Lat,Lng,Max Temp,Humidity,Cloudiness,Wind Speed,Country,Date
Mar del Plata,-38.0023,-57.5575,23.0,60,0,3.6,AR,1612542159
Busselton,-33.65,115.3333,16.11,68,95,1.34,AU,1612542342
Voh,-20.9667,164.7,23.45,88,11,1.15,NC,1612542342
Waddān,29.1614,16.139,22.4,21,1,1.85,LY,1612542342
Porto Nacional,-10.7081,-48.4172,31.0,66,40,3.6,BR,1612542342
Provideniya,64.3833,-173.3,-15.08,90,100,9.88,RU,1612542342
Nānākuli,21.3906,-158.1547,16.0,82,75,1.54,US,1612542342
Lebu,-37.6167,-73.65,18.07,72,50,5.81,CL,1612542342
Port Alfred,-33.5906,26.891,22.22,89,98,1.34,ZA,1612542342
Ushuaia,-54.8,-68.3,10.0,71,75,12.35,AR,1612542062
Praia da Vitória,38.7333,-27.0667,15.0,63,75,7.57,PT,1612542342
Saint George,37.1041,-113.5841,2.0,48,1,0.46,US,1612542325
Kolondiéba,11.0882,-6.8926,38.98,9,44,1.49,ML,1612542343
Salalah,17.0151,54.0924,24.0,64,40,2.57,OM,1612542343
Hobart,-42.8794,147.3294,21.0,83,90,4.63,AU,1612542077
Meulaboh,4.1363,96.1285,26.14,79,84,1.53,ID,1612542118
Mayo,38.8876,-76.5119,10.0,61,1,4.12,US,1612542343
Albany,42.6001,-73.9662,2.78,62,100,0.89,US,1612542343
San Cristobal,7.7669,-72.225,30.0,51,40,6.17,VE,1612542122
Puerto Ayora,-0.7393,-90.3518,29.0,65,75,8.75,EC,1612542343
Compostela,7.6731,126.0889,22.77,87,100,1.13,PH,1612542343
Noumea,-22.2763,166.4572,26.11,94,90,1.54,NC,1612542343
Maramba,-5.05,38.6167,21.2,87,21,2.51,TZ,1612542343
Ust'-Ishim,57.6935,71.1665,-3.36,99,100,2.06,RU,1612542343
Kiryat Gat,31.61,34.7642,17.22,100,11,4.9,IL,1612542343
Puerto Quijarro,-17.7833,-57.7667,32.86,41,42,2.89,BO,1612542343
Itarema,-2.9248,-39.9167,30.71,52,3,7.66,BR,1612542343
Rikitea,-23.1203,-134.9692,25.63,71,40,5.4,PF,1612542343
Khatanga,71.9667,102.5,-32.85,79,41,3.86,RU,1612542250
Hithadhoo,-0.6,73.0833,28.27,78,100,6.6,MV,1612542344
Mataura,-46.1927,168.8643,8.57,94,100,0.67,NZ,1612542344
San Mateo Ixtatán,15.8319,-91.4781,20.0,37,0,0.8,GT,1612542344
Aykhal,66.0,111.5,-36.76,81,7,1.69,RU,1612542344
Pacifica,37.6138,-122.4869,10.0,66,1,2.07,US,1612542343
Nouadhibou,20.931,-17.0347,20.0,68,40,7.72,MR,1612542344
Aitape,-3.1374,142.3475,25.36,84,100,0.57,PG,1612542344
Sinnamary,5.3833,-52.95,26.37,82,91,6.14,GF,1612542344
Kapaa,22.0752,-159.319,17.78,77,90,2.57,US,1612542344
Yellowknife,62.456,-114.3525,-39.0,67,20,3.6,CA,1612542344
Cape Town,-33.9258,18.4232,24.44,73,20,12.86,ZA,1612542344
Ribeira Grande,38.5167,-28.7,16.0,63,40,9.26,PT,1612542344
Dingle,10.9995,122.6711,24.36,89,97,3.26,PH,1612542100
George Town,5.4112,100.3354,28.89,83,20,1.03,MY,1612542154
Talnakh,69.4865,88.3972,-30.98,84,100,2.43,RU,1612542344
Souillac,-20.5167,57.5167,27.0,78,75,2.06,MU,1612542344
Tasiilaq,65.6145,-37.6368,-6.0,63,20,2.06,GL,1612542344
Bluff,-46.6,168.3333,11.69,86,100,2.13,NZ,1612542344
Jamestown,42.097,-79.2353,-2.0,69,90,9.77,US,1612542344
Burns Lake,54.2331,-125.7533,-4.0,93,83,1.54,CA,1612542344
Grand Gaube,-20.0064,57.6608,26.11,78,0,1.79,MU,1612542345
Yoichi,43.2039,140.7703,-5.0,77,100,4.09,JP,1612542345
Hurghada,27.2574,33.8129,21.0,46,0,10.8,EG,1612542345
Vaini,-21.2,-175.2,26.0,94,75,0.51,TO,1612542078
Ratnagiri,16.9833,73.3,23.77,66,0,3.9,IN,1612542345
Bengbu,32.9408,117.3608,7.76,72,0,3.98,CN,1612542345
New Norfolk,-42.7826,147.0587,18.33,89,100,1.21,AU,1612542079
San Carlos,9.6612,-68.5827,34.1,43,75,1.37,VE,1612542345
Srīvardhan,18.0333,73.0167,23.09,58,1,4.44,IN,1612542345
São Raimundo Nonato,-9.0153,-42.6994,35.2,32,87,2.78,BR,1612542345
Pitimbu,-7.4706,-34.8086,31.0,58,20,5.66,BR,1612542345
Port Elizabeth,-33.918,25.5701,23.0,78,40,6.17,ZA,1612542345
Bangolo,7.0069,-7.475,38.31,22,1,1.35,CI,1612542345
Erenhot,43.6475,111.9767,-7.62,89,3,5.83,CN,1612542345
Umm Kaddadah,13.6017,26.6876,22.77,20,0,8.1,SD,1612542097
Bushehr,28.9684,50.8385,22.0,46,0,8.23,IR,1612542345
Saskylakh,71.9167,114.0833,-33.04,85,100,2.44,RU,1612542345
Hasaki,35.7333,140.8333,4.0,87,75,0.51,JP,1612542345
Brae,60.3964,-1.353,1.0,51,75,7.72,GB,1612542345
Grindavik,63.8424,-22.4338,3.0,81,75,11.83,IS,1612542345
Oranjemund,-28.55,16.4333,20.12,75,2,8.41,NA,1612542345
Butaritari,3.0707,172.7902,26.9,83,100,5.53,KI,1612542346
Deputatsky,69.3,139.9,-36.45,86,99,0.19,RU,1612542313
Faanui,-16.4833,-151.75,27.15,69,80,3.51,PF,1612542346
Tuktoyaktuk,69.4541,-133.0374,-33.0,68,90,4.63,CA,1612542346
Punta Arenas,-53.15,-70.9167,13.0,50,20,10.8,CL,1612542261
Columbio,6.6964,124.9372,24.24,81,99,0.98,PH,1612542346
Boyolangu,-8.1181,111.8935,24.17,90,100,1.78,ID,1612542346
Daru,-9.0763,143.2092,26.66,82,100,4.61,PG,1612542346
Bandarbeyla,9.4942,50.8122,23.8,68,16,5.66,SO,1612542346
Road Town,18.4167,-64.6167,29.0,65,40,5.66,VG,1612542346
Yulara,-25.2406,130.9889,22.0,28,37,3.6,AU,1612542346
Norman Wells,65.282,-126.8329,-33.0,68,75,7.72,CA,1612542346
Oistins,13.0667,-59.5333,28.0,57,75,9.26,BB,1612542346
Nome,64.5011,-165.4064,-8.33,73,90,9.77,US,1612542346
Coahuayana Viejo,18.7333,-103.6833,23.0,68,1,0.98,MX,1612542346
Kaitangata,-46.2817,169.8464,10.56,80,95,1.79,NZ,1612542346
Medicine Hat,50.0501,-110.6683,-16.67,85,90,5.14,CA,1612542100
Kongwa,-6.2,36.4167,22.61,75,30,2.85,TZ,1612542347
Acarí,-15.4311,-74.6158,26.97,50,98,3.95,PE,1612542347
Barrow,71.2906,-156.7887,-28.0,69,90,5.66,US,1612542347
Hilo,19.7297,-155.09,17.0,67,1,3.6,US,1612542240
Vidim,56.4088,103.1106,-15.46,94,100,2.13,RU,1612542347
Spassk-Dal'niy,44.5978,132.8211,-10.81,96,97,1.69,RU,1612542347
Winnemucca,40.973,-117.7357,1.0,55,1,7.2,US,1612542237
Kimbe,-5.5502,150.1429,23.89,89,75,1.14,PG,1612542347
Pisco,-13.7,-76.2167,23.33,83,0,4.63,PE,1612542347
Coquimbo,-29.9533,-71.3436,18.0,72,90,3.6,CL,1612542103
Nemuro,43.3236,145.575,-5.14,88,4,4.44,JP,1612542347
Bengkulu,-3.8004,102.2655,25.31,85,81,1.92,ID,1612542347
Te Anau,-45.4167,167.7167,12.17,91,89,0.19,NZ,1612542347
Pevek,69.7008,170.3133,-26.32,87,74,1.21,RU,1612542347
Atuona,-9.8,-139.0333,26.08,80,55,7.25,PF,1612542347
Belmonte,-15.8631,-38.8828,31.0,74,75,7.72,BR,1612542347
Vágur,61.4732,-6.8119,3.56,76,100,6.48,FO,1612542347
Uyutnoye,45.1994,33.3014,3.89,70,29,0.45,UA,1612542347
Hermanus,-34.4187,19.2345,24.44,71,0,2.24,ZA,1612542087
Puerto Escondido,15.85,-97.0667,28.0,78,20,2.06,MX,1612542347
Kikwit,-5.041,18.8162,30.69,61,77,0.59,CD,1612542347
Sola,-13.8833,167.55,27.14,80,100,4.2,VU,1612542149
Luau,-10.7073,22.2247,23.81,82,100,1.05,AO,1612542347
Saint-François,46.4154,3.9054,11.11,82,0,2.06,FR,1612542348
Banjar,-8.19,114.9675,26.0,94,40,2.06,ID,1612542348
Barranca,-10.75,-77.7667,23.86,64,55,4.8,PE,1612542348
Makakilo City,21.3469,-158.0858,16.0,82,75,1.54,US,1612542083
Nogales,31.3086,-110.9422,9.44,52,1,1.28,MX,1612542348
Esperance,-33.8667,121.9,14.0,94,90,1.54,AU,1612542083
Beloha,-25.1667,45.05,27.49,76,95,3.44,MG,1612542348
Tiksi,71.6872,128.8694,-27.57,89,100,7.19,RU,1612542348
Qaanaaq,77.484,-69.3632,-25.59,72,25,2.9,GL,1612542078
Bredasdorp,-34.5322,20.0403,23.0,68,0,5.66,ZA,1612542348
Lavrentiya,65.5833,-171.0,-16.67,92,100,7.47,RU,1612542348
Walla Walla,46.0646,-118.343,7.78,70,90,6.17,US,1612542348
Forio,40.7342,13.8646,17.22,59,59,1.34,IT,1612542348
Mahébourg,-20.4081,57.7,27.0,78,75,2.06,MU,1612542348
Huntsville,34.7304,-86.5861,5.0,65,1,2.35,US,1612542102
Kavieng,-2.5744,150.7967,26.49,87,100,5.97,PG,1612542348
Atar,20.5169,-13.0499,23.76,25,100,5.21,MR,1612542348
Assiniboia,49.6334,-105.9845,-19.0,71,100,5.66,CA,1612542348
Thompson,55.7435,-97.8558,-26.0,70,75,4.63,CA,1612542090
Bethel,41.3712,-73.414,2.78,93,90,2.57,US,1612542348
Lodja,-3.4833,23.4333,29.18,59,100,0.61,CD,1612542348
Fortuna,40.5982,-124.1573,5.56,100,90,1.76,US,1612542348
San Julián,21.0167,-102.1667,19.17,25,4,0.52,MX,1612542349
Vardø,70.3705,31.1107,-2.0,80,75,5.14,NO,1612542349
Avarua,-21.2078,-159.775,24.0,100,40,1.03,CK,1612542349
Monteiro,-7.8894,-37.12,34.28,26,1,4.73,BR,1612542349
East London,-33.0153,27.9116,21.0,94,75,4.12,ZA,1612542349
Rognan,67.0953,15.3878,-6.11,90,46,1.6,NO,1612542349
Yerbogachën,61.2767,108.0108,-26.85,88,90,1.36,RU,1612542134
Wadi Maliz,36.4681,8.5495,22.0,46,20,2.06,TN,1612542349
Dudinka,69.4058,86.1778,-34.72,84,100,2.92,RU,1612542349
General Roca,-39.0333,-67.5833,34.0,27,0,4.63,AR,1612542349
Dikson,73.5069,80.5464,-35.24,83,4,6.11,RU,1612542349
Ferrol,43.4832,-8.2369,11.67,71,79,1.79,ES,1612542351
Calvià,39.5657,2.5062,21.0,40,0,0.51,ES,1612542351
Lüderitz,-26.6481,15.1594,25.12,47,0,12.72,NA,1612542351
Batticaloa,7.7102,81.6924,25.16,83,83,4.41,LK,1612542351
Clyde River,70.4692,-68.5914,-29.0,69,75,6.69,CA,1612542351
Casper,42.8666,-106.3131,-3.33,63,90,8.75,US,1612542351
Bartica,6.4,-58.6167,29.0,70,75,7.2,GY,1612542351
Soe,-9.8607,124.284,19.58,100,100,1.85,ID,1612542351
Kloulklubed,7.0419,134.2556,27.0,83,75,4.12,PW,1612542351
Pandan,14.0453,124.1694,25.47,87,84,4.96,PH,1612542351
Katsuura,35.1333,140.3,12.0,40,75,8.75,JP,1612542351
Peace River,56.2501,-117.286,-26.0,64,75,4.12,CA,1612542166
Honningsvåg,70.9821,25.9704,0.0,80,75,12.86,NO,1612542351
Liberal,37.0431,-100.921,4.0,45,1,2.57,US,1612542351
Cherskiy,68.75,161.3,-25.08,78,0,3.53,RU,1612542351
Castro,-24.7911,-50.0119,23.4,55,0,3.64,BR,1612542260
Alta Floresta,-9.8756,-56.0861,25.0,100,75,3.09,BR,1612542227
Ha Giang,22.8333,104.9833,18.64,78,48,0.49,VN,1612542351
Ejea de los Caballeros,42.1263,-1.1372,17.22,72,70,3.09,ES,1612542351
Ramona,33.0417,-116.8681,11.11,87,1,1.0,US,1612542351
Baruun-Urt,46.6806,113.2792,-11.35,94,100,5.43,MN,1612542078
Mīzan Teferī,6.9833,35.5833,22.24,45,58,0.47,ET,1612542352
Port Lincoln,-34.7333,135.8667,17.26,78,100,9.45,AU,1612542352
Hobyo,5.3505,48.5268,24.78,77,0,6.28,SO,1612542352
San Patricio,28.017,-97.5169,16.11,59,90,5.14,US,1612542352
Iqaluit,63.7506,-68.5145,-7.0,79,75,7.72,CA,1612542109
Alice Springs,-23.7,133.8833,23.0,56,100,3.6,AU,1612542210
Alyangula,-13.8483,136.4192,26.0,100,90,3.09,AU,1612542352
Anadyr,64.75,177.4833,-17.0,78,75,9.0,RU,1612542352
Samarai,-10.6167,150.6667,27.43,77,5,1.52,PG,1612542352
Sur,22.5667,59.5289,19.19,65,0,1.42,OM,1612542352
Coyhaique,-45.5752,-72.0662,24.0,41,0,1.54,CL,1612542352
Tubualá,9.5167,-79.0333,32.22,51,20,3.6,PA,1612542352
Panjāb,34.388,67.0233,-11.5,56,8,0.91,AF,1612542352
Poso,-1.3959,120.7524,25.17,81,100,2.35,ID,1612542328
Inuvik,68.3499,-133.7218,-35.0,68,100,2.57,CA,1612542352
Goundam,16.4145,-3.6708,36.76,8,21,3.21,ML,1612542352
Kano,12.0001,8.5167,27.0,16,40,4.12,NG,1612542353
Flinders,-34.5833,150.8552,23.33,83,100,1.34,AU,1612542135
Guymon,36.6828,-101.4816,1.0,55,1,3.35,US,1612542095
Berlevåg,70.8578,29.0864,-3.0,93,75,7.72,NO,1612542353
Lorengau,-2.0226,147.2712,26.75,79,93,2.16,PG,1612542146
Toowoomba,-27.55,151.9667,19.0,88,3,3.6,AU,1612542353
Sterlitamak,53.6246,55.9502,1.51,94,100,7.02,RU,1612542353
Tessalit,20.1986,1.0114,32.43,10,4,3.79,ML,1612542353
Breyten,-26.3018,29.987,16.0,82,75,6.69,ZA,1612542353
Gimli,50.6336,-96.9907,-21.0,71,99,5.66,CA,1612542353
Bose,45.4612,8.0137,10.0,91,82,0.63,IT,1612542353
Sioux Lookout,50.1001,-91.917,-23.0,70,90,7.2,CA,1612542353
Srednekolymsk,67.45,153.6833,-25.73,88,100,3.42,RU,1612542295
Venado Tuerto,-33.7456,-61.9688,31.11,59,0,0.89,AR,1612542353
Ponta do Sol,32.6667,-17.1,13.33,78,69,0.89,PT,1612542353
Nikolskoye,59.7035,30.7861,-13.89,78,40,5.0,RU,1612542353
Baykit,61.67,96.37,-17.75,89,100,1.3,RU,1612542353
Gornopravdinsk,60.05,69.9,-10.72,97,100,2.57,RU,1612542353
Tocopilla,-22.092,-70.1979,23.14,55,27,3.17,CL,1612542354
Methóni,36.8197,21.7049,17.0,63,20,3.48,GR,1612542354
Lázaro Cárdenas,17.9583,-102.2,25.85,67,32,1.96,MX,1612542274
Opunake,-39.4556,173.8583,11.67,66,27,6.26,NZ,1612542354
Mount Isa,-20.7333,139.5,29.0,61,40,4.63,AU,1612542354
Kedrovyy,56.1667,91.8167,-17.0,85,0,1.0,RU,1612542354
Mama,58.3106,112.8986,-19.26,85,100,1.29,RU,1612542354
Shwebo,22.5667,95.7,20.42,40,0,2.03,MM,1612542354
Ilulissat,69.2167,-51.1,-13.0,43,20,7.2,GL,1612542354
Tura,25.5198,90.2201,17.58,48,0,1.57,IN,1612542091
Ambovombe,-25.1667,46.0833,26.64,76,99,0.88,MG,1612542318
Kasongo,-4.45,26.6667,26.3,83,79,1.2,CD,1612542354
Arraial do Cabo,-22.9661,-42.0278,29.0,74,75,2.06,BR,1612542309
Nantucket,41.2835,-70.0995,5.56,87,90,4.63,US,1612542340
Hofn,64.2539,-15.2082,0.0,93,90,2.06,IS,1612542354
Tateyama,34.9833,139.8667,12.0,40,75,8.75,JP,1612542145
Honiara,-9.4333,159.95,25.44,81,71,1.5,SB,1612542354
Severo-Kuril'sk,50.6789,156.125,-11.35,84,84,3.05,RU,1612542096
Upernavik,72.7868,-56.1549,-15.08,76,100,1.32,GL,1612542354
Ponta Delgada,37.7333,-25.6667,14.0,62,20,7.2,PT,1612542249
Codrington,-38.2667,141.9667,12.69,87,45,5.41,AU,1612542355
Kamenka,51.3223,42.7678,-5.56,85,100,6.71,RU,1612542355
Mildura,-34.2,142.15,18.0,59,7,5.66,AU,1612542355
Bambous Virieux,-20.3428,57.7575,27.0,78,75,2.06,MU,1612542355
Vila Velha,-20.3297,-40.2925,32.22,62,20,8.23,BR,1612542355
Vadakku Valliyūr,8.3833,77.65,22.86,83,0,2.6,IN,1612542355
Al Bardīyah,31.7561,25.0865,16.31,81,19,5.59,LY,1612542355
Pareora,-44.4871,171.2132,10.56,94,99,2.14,NZ,1612542355
Along,28.1667,94.7667,12.51,55,2,1.14,IN,1612542355
Stephenville,32.2207,-98.2023,8.0,42,75,2.57,US,1612542355
Necochea,-38.5473,-58.7368,28.58,24,0,2.82,AR,1612542242
Torbay,47.6666,-52.7314,6.11,93,75,8.75,CA,1612542355
Haines Junction,60.7522,-137.5108,-33.0,68,62,0.51,CA,1612542107
Kinablangan,7.6947,126.5503,26.06,80,100,2.15,PH,1612542355
Conceição da Barra,-18.5933,-39.7322,31.91,55,99,5.49,BR,1612542355
Lavras da Mangabeira,-6.7533,-38.9644,32.0,40,40,2.57,BR,1612542355
Lubao,14.9167,120.55,25.0,83,75,1.03,PH,1612542355
Cabedelo,-6.9811,-34.8339,31.0,58,20,5.66,BR,1612542355
Kaeo,-35.1,173.7833,15.0,93,100,1.52,NZ,1612542103
Buta,2.7858,24.73,28.34,63,98,0.97,CD,1612542355
Athabasca,54.7169,-113.2854,-25.0,76,100,3.09,CA,1612542355
Saint Paul Harbor,57.79,-152.4072,-4.0,86,40,3.09,US,1612542356
Riyadh,24.6877,46.7219,24.0,15,45,6.69,SA,1612542296
Waslala,13.2333,-85.3833,23.0,78,40,1.26,NI,1612542356
Bubaque,11.2833,-15.8333,25.99,58,86,6.24,GW,1612542335
Shyryayeve,47.3805,30.1964,-1.4,93,70,1.22,UA,1612542356
Kjøllefjord,70.9457,27.3465,0.0,80,75,12.86,NO,1612542274
Leh,34.1667,77.5833,-13.88,62,4,0.91,IN,1612542356
Mendota,36.7536,-120.3816,3.89,93,1,1.83,US,1612542356
Cabo San Lucas,22.8909,-109.9124,25.56,40,1,1.54,MX,1612542273
Hong Kong,22.2855,114.1577,19.44,77,0,2.72,HK,1612542356
Kavaratti,10.5669,72.642,27.48,77,13,5.34,IN,1612542356
Nurota,40.5614,65.6886,11.0,37,100,4.12,UZ,1612542356
Gizo Government Station,-8.103,156.8419,28.02,76,34,4.4,SB,1612542356
Buenaventura,3.8801,-77.0312,27.75,84,100,1.26,CO,1612542356
Paamiut,61.994,-49.6678,-6.71,76,0,3.15,GL,1612542140
Três Barras,-26.1064,-50.3222,26.66,29,0,2.4,BR,1612542356
Muros,42.7762,-9.0603,12.78,72,86,1.34,ES,1612542356
Camacha,33.0833,-16.3333,16.0,63,40,9.26,PT,1612542356
Lianran,24.9227,102.485,10.0,53,0,5.0,CN,1612542356
Swellendam,-34.0226,20.4417,23.0,68,0,5.66,ZA,1612542357
Vanimo,-2.6741,141.3028,26.36,81,100,1.75,PG,1612542357
Tuy Hoa,13.0833,109.3,21.5,89,100,2.85,VN,1612542357
Prado,-17.3411,-39.2208,28.93,71,70,7.24,BR,1612542357
Husavik,66.0449,-17.3389,-5.0,74,0,0.51,IS,1612542357
Laguna,38.421,-121.4238,6.11,93,1,1.54,US,1612542108
Khandyga,62.6667,135.6,-39.31,80,100,0.72,RU,1612542357
Dunedin,-45.8742,170.5036,12.78,81,78,1.79,NZ,1612542357
Abu Dhabi,24.4667,54.3667,23.0,73,0,2.57,AE,1612541833
Whitecourt,54.1502,-115.6855,-20.0,77,90,2.57,CA,1612542357
Amapá,1.0,-52.0,28.23,79,72,1.41,BR,1612542357
Kamyshnya,50.1859,33.684,-8.91,96,79,3.89,UA,1612542357
Vestmannaeyjar,63.4427,-20.2734,3.0,81,20,11.32,IS,1612542357
Vodnyy,63.5046,53.4095,-16.45,93,100,3.58,RU,1612542357
Beringovskiy,63.05,179.3167,-21.09,90,100,5.27,RU,1612542157
Guerrero Negro,27.9769,-114.0611,16.18,69,0,3.35,MX,1612542357
Harrisburg,40.2737,-76.8844,7.22,57,20,4.12,US,1612542063
Orocué,4.7912,-71.3354,32.16,53,76,6.19,CO,1612542357
Bitam,2.076,11.5007,31.29,42,100,0.8,GA,1612542358
Richards Bay,-28.783,32.0377,25.91,84,25,2.57,ZA,1612542098
Aloleng,16.1307,119.7824,25.65,74,14,4.08,PH,1612542156
Chapais,49.7834,-74.8492,-6.0,79,1,7.72,CA,1612542358
Asău,46.4333,26.4,2.78,71,98,0.57,RO,1612542358
Nuevitas,21.5453,-77.2644,27.0,61,0,4.12,CU,1612542358
Mattru,7.6244,-11.8332,37.09,28,48,2.05,SL,1612542358
Naze,28.3667,129.4833,16.2,71,93,4.67,JP,1612542358
Walvis Bay,-22.9575,14.5053,21.0,73,31,4.63,NA,1612542358
Alghero,40.5589,8.3181,18.0,68,0,1.54,IT,1612542358
Turaiyūr,11.1667,78.6167,25.0,69,20,4.12,IN,1612542358
Ostrovnoy,68.0531,39.5131,-10.66,92,100,6.75,RU,1612542068
Carutapera,-1.195,-46.02,31.24,51,8,4.16,BR,1612542148
Plettenberg Bay,-34.0527,23.3716,22.74,78,5,4.4,ZA,1612542358
College,64.8569,-147.8028,-29.44,82,1,2.57,US,1612542111
Shingū,33.7333,135.9833,7.79,69,89,2.9,JP,1612542358
Guangzhou,23.1167,113.25,21.11,72,0,2.92,CN,1612542171
Taoudenni,22.6783,-3.9836,34.96,9,23,8.08,ML,1612542358
Wuchang,44.9143,127.15,-13.75,95,100,1.58,CN,1612542358
Laas,46.6166,10.7002,7.78,70,0,2.06,IT,1612542358
Jaicós,-7.3592,-41.1378,36.84,28,7,2.5,BR,1612542358
Kārkala,13.2,74.9833,27.0,69,7,2.57,IN,1612542358
San Quintín,30.4833,-115.95,13.12,75,0,1.92,MX,1612542359
Harper,4.375,-7.7169,28.56,76,20,4.52,LR,1612542359
Trairi,-3.2778,-39.2689,30.67,56,0,6.44,BR,1612542359
Kovylkino,54.0388,43.9139,-9.48,94,100,7.29,RU,1612542359
Bitkine,11.9801,18.2138,32.63,11,0,5.2,TD,1612542359
Morros,-9.4467,-46.3003,31.37,49,43,3.16,BR,1612542359
Aksarka,66.5606,67.7975,-28.61,87,100,4.41,RU,1612542359
Ahipara,-35.1667,173.1667,15.43,89,100,1.79,NZ,1612542359
Oneonta,42.4529,-75.0638,3.33,78,97,1.34,US,1612542359
Howard Springs,-12.497,131.047,25.0,94,100,1.54,AU,1612542359
Digha,21.6833,87.55,20.54,59,0,2.99,IN,1612542359
Chui,-33.6971,-53.4616,20.78,65,73,6.51,UY,1612542359
Sulangan,11.1373,123.7228,27.11,82,37,5.32,PH,1612542359
Anloga,5.7947,0.8973,32.0,70,20,6.17,GH,1612542359
Maniitsoq,65.4167,-52.9,-9.87,74,28,2.9,GL,1612542359
Emerald,-23.5333,148.1667,25.0,73,33,4.63,AU,1612542359
Puerto Colombia,10.9878,-74.9547,31.0,62,20,2.06,CO,1612542359
Nobeoka,32.5833,131.6667,3.89,74,100,0.89,JP,1612542359
Pacific Grove,36.6177,-121.9166,8.33,70,1,2.06,US,1612542360
Verkhnevilyuysk,63.4453,120.3167,-40.98,79,1,1.41,RU,1612542122
Arrondissement d'Ajaccio,42.0,8.9167,16.0,72,0,1.54,FR,1612542360
Lompoc,34.6391,-120.4579,6.11,93,1,2.06,US,1612542360
Xining,36.6167,101.7667,-4.12,53,9,0.47,CN,1612542360
Longyearbyen,78.2186,15.6401,-8.0,86,90,1.54,SJ,1612542360
Yen Bai,21.7,104.8667,19.81,80,72,0.32,VN,1612542360
Caravelas,-17.7125,-39.2481,30.91,60,71,5.99,BR,1612542360
Santa Cruz,30.4202,-9.5982,16.0,72,75,7.2,MA,1612542245
Cidreira,-30.1811,-50.2056,22.86,69,89,8.23,BR,1612542360
Kurchum,48.5722,83.6542,-6.64,96,89,0.8,KZ,1612542360
Teguise,29.0605,-13.564,17.0,59,20,6.17,ES,1612542360
Araouane,18.9048,-3.5265,34.77,9,52,5.72,ML,1612542360
Geraldton,-28.7667,114.6,19.0,77,90,5.14,AU,1612542360
Bongandanga,1.5,21.05,26.35,87,93,0.34,CD,1612542360
Mana,5.6592,-53.7767,26.65,78,90,5.42,GF,1612542360
Lālmohan,22.3384,90.7419,20.19,62,0,4.42,BD,1612542360
Sisimiut,66.9395,-53.6735,-11.08,74,13,4.25,GL,1612542361
Cucutilla,7.5394,-72.7724,30.0,51,40,6.17,CO,1612542361
Sălăţig,47.3667,23.1333,6.11,93,90,2.06,RO,1612542361
Nikel,69.4128,30.222,-4.0,86,75,3.6,RU,1612542361
Kudahuvadhoo,2.6708,72.8944,27.71,75,100,6.74,MV,1612542361
Springdale,36.1867,-94.1288,5.56,45,1,5.14,US,1612542361
Montepuez,-13.1256,38.9997,23.5,93,100,1.67,MZ,1612542361
Vao,-22.6667,167.4833,25.68,87,5,7.59,NC,1612542361
Nicoya,10.1483,-85.452,31.0,48,0,4.12,CR,1612542361
Marabu,4.4148,114.0089,25.0,100,40,3.5,MY,1612542361
Sørland,67.667,12.6934,2.0,75,40,5.14,NO,1612542361
Merauke,-8.4667,140.3333,26.4,88,99,7.08,ID,1612542306
Panabá,21.2833,-88.2667,25.45,64,0,4.7,MX,1612542316
Namie,37.4833,141.0,6.11,45,100,3.36,JP,1612542361
Pierre,44.3683,-100.351,-8.89,53,1,8.23,US,1612542362
Pinsk,52.1229,26.0951,-8.15,96,14,2.87,BY,1612542362
Saint-Philippe,-21.3585,55.7679,28.0,69,40,4.63,RE,1612542362
Semporna,4.4818,118.6112,25.0,94,20,1.03,MY,1612542362
Kumul,42.8,93.45,-1.08,85,100,0.4,CN,1612542362
Raymond,43.9015,-70.4703,-0.56,88,100,2.77,US,1612542362
Cabo Rojo,18.0866,-67.1457,29.44,69,1,3.13,PR,1612542362
Port-Cartier,50.0334,-66.8654,2.78,93,95,1.03,CA,1612542362
Invermere,50.5167,-116.0354,-7.1,90,86,0.75,CA,1612542362
Maple Valley,47.3927,-122.0464,9.44,87,90,2.98,US,1612542362
Perth,-31.9333,115.8333,19.44,45,0,10.8,AU,1612542296
Kysyl-Syr,63.8986,122.7617,-41.26,77,1,2.11,RU,1612542362
Klaksvík,62.2266,-6.589,1.0,64,71,3.09,FO,1612542362
Domoni,-12.2569,44.5319,28.06,71,64,1.33,KM,1612542362
Puerto Suárez,-18.95,-57.8,30.0,66,40,5.14,BO,1612542363
Matara,5.9485,80.5353,25.35,80,95,3.63,LK,1612542363
Shangrao,28.4532,117.9686,12.82,89,94,1.04,CN,1612542363
Oddur,4.1213,43.8894,28.16,26,0,4.63,SO,1612542363
Kununurra,-15.7667,128.7333,25.0,100,90,2.06,AU,1612542363
Neuquén,-38.9516,-68.0591,34.0,27,0,4.63,AR,1612542163
Kathu,7.9178,98.3332,28.0,65,20,4.63,TH,1612542327
Vila Franca do Campo,37.7167,-25.4333,14.0,62,20,7.2,PT,1612542363
Adrar,20.5022,-10.0711,26.46,21,46,4.89,MR,1612542363
The Valley,18.217,-63.0578,29.0,65,20,6.69,AI,1612542363
Zapolyarnyy,69.4154,30.8136,-4.0,86,75,3.6,RU,1612542363
The Pas,53.8251,-101.2541,-26.0,70,1,6.17,CA,1612542363
Slavutych,51.5196,30.7343,-8.14,93,64,3.61,UA,1612542363
Hailey,43.5196,-114.3153,-4.0,86,75,3.09,US,1612542363
Kruisfontein,-34.0033,24.7314,25.56,62,0,3.13,ZA,1612542078
Brigantine,39.4101,-74.3646,7.0,76,90,4.63,US,1612542364
Sühbaatar,50.2314,106.2078,-17.34,86,91,0.96,MN,1612542364
Troitsko-Pechorsk,62.7084,56.1964,-11.44,96,100,2.28,RU,1612542364
Saint-Marc,19.1082,-72.6938,27.85,58,0,0.9,HT,1612542364
Albenga,44.0529,8.216,16.0,77,40,3.09,IT,1612542364
Berezovyy,51.6667,135.7,-26.13,81,97,0.66,RU,1612542364
Adré,13.4667,22.2,25.57,17,4,7.76,TD,1612542343
Cockburn Town,21.4612,-71.1419,24.77,80,4,8.64,TC,1612542364
Trelleborg,55.3751,13.1569,-6.0,79,0,4.12,SE,1612542364
Usinsk,65.9939,57.5281,-21.91,90,100,5.02,RU,1612542364
Helsingborg,56.0467,12.6944,-4.44,79,35,0.89,SE,1612542364
Qaqortoq,60.7167,-46.0333,-7.0,35,1,1.03,GL,1612542364
La Ronge,55.1001,-105.2842,-32.0,68,3,4.63,CA,1612542364
Wetaskiwin,52.9668,-113.3687,-21.67,77,90,3.09,CA,1612542364
Mbaïki,3.8678,17.9892,36.6,14,35,2.0,CF,1612542364
La Sarre,48.8002,-79.1996,-2.58,98,100,5.88,CA,1612542301
Sitka,57.0531,-135.33,1.0,100,90,2.06,US,1612542365
Westport,41.1415,-73.3579,4.0,87,90,5.66,US,1612542365
Olafsvik,64.8945,-23.7142,3.72,77,100,15.67,IS,1612542365
Kodinsk,58.6881,99.1844,-17.39,92,98,2.07,RU,1612542365
Kirakira,-10.4544,161.9205,26.08,82,26,2.93,SB,1612542365
Loreto,22.2667,-101.9667,18.86,22,0,4.55,MX,1612542365
Kutulik,53.3508,102.7839,-17.78,90,78,2.24,RU,1612542365
Aswān,24.0934,32.907,19.9,38,7,6.01,EG,1612542365
Izhevskoye,54.5567,40.8703,-13.35,94,100,4.43,RU,1612542365
Botwood,49.1499,-55.3482,2.22,95,100,1.28,CA,1612542365
Harrismith,-28.2728,29.1295,21.78,68,40,3.61,ZA,1612542365
Menongue,-14.6585,17.691,26.03,61,85,1.17,AO,1612542365
Hazleton,40.9584,-75.9746,5.0,70,1,4.12,US,1612542158
Port Blair,11.6667,92.75,26.17,80,14,3.95,IN,1612542123
Miepherkeim,38.1419,41.0081,12.0,71,40,3.09,TR,1612542365
Neftegorsk,52.802,51.166,2.31,99,100,7.89,RU,1612542365
Acapulco de Juárez,16.8634,-99.8901,28.0,69,75,1.03,MX,1612542365
Hamilton,39.1834,-84.5333,0.56,55,20,5.14,US,1612542273
Ulagan,50.6321,87.9563,-6.38,90,100,1.47,RU,1612542366
Terney,45.0503,136.6092,-10.27,90,43,2.75,RU,1612542366
Tigil',57.8,158.6667,-21.88,88,26,1.22,RU,1612542294
Faya,18.3851,42.4509,16.0,58,0,5.14,SA,1612542366
Cherniakhiv,50.4565,28.6702,-5.9,92,0,3.36,UA,1612542366
Worland,44.0169,-107.9554,-2.0,69,90,2.57,US,1612542366
Havelock,34.8791,-76.9013,14.44,54,90,8.23,US,1612542207
Minas,-34.3759,-55.2377,22.22,60,40,6.69,UY,1612542367
Saldanha,-33.0117,17.9442,24.0,60,2,9.77,ZA,1612542367
Saint Anthony,45.0205,-93.218,-13.0,66,90,7.72,US,1612542367
Taft,31.7471,54.2088,15.0,17,0,2.06,IR,1612542367
Wenshang,35.7275,116.4961,8.17,45,0,3.84,CN,1612542367
Qax,41.4225,46.9242,9.0,61,75,2.06,AZ,1612542367
Kalianget,-7.05,113.9333,26.74,82,100,7.73,ID,1612542367
Ternate,0.8,127.4,27.33,78,100,2.36,ID,1612542367
Carroll,39.5501,-77.0164,7.22,65,1,4.12,US,1612542367
Marrakesh,31.6315,-8.0083,17.0,51,40,2.57,MA,1612542202
Lagoa,39.05,-27.9833,13.24,76,82,6.81,PT,1612542367
Port Hardy,50.6996,-127.4199,6.0,87,90,2.57,CA,1612542367
Rapid Valley,44.0625,-103.1463,-5.0,79,90,2.57,US,1612542367
Portland,45.5234,-122.6762,7.22,93,100,2.68,US,1612542178
Las Vegas,36.175,-115.1372,9.44,29,1,1.54,US,1612542250
Hualmay,-11.0964,-77.6139,24.05,64,75,4.51,PE,1612542328
Aklavik,68.2191,-135.0107,-35.0,68,40,2.06,CA,1612542368
Akureyri,65.6835,-18.0878,-5.0,74,0,0.51,IS,1612542368
Doka,13.5167,35.7667,24.9,17,0,4.87,SD,1612542368
Karratha,-20.7377,116.8463,27.32,78,17,3.88,AU,1612542368
Guilin,25.2819,110.2864,14.0,82,20,1.0,CN,1612542368
Chiusi,43.016,11.9475,14.44,79,100,1.58,IT,1612542368
Carnarvon,-24.8667,113.6333,27.0,80,90,10.29,AU,1612542099
Ondjiva,-17.0667,15.7333,34.0,26,40,3.09,AO,1612542368
Penzance,50.1186,-5.5371,8.0,76,75,5.66,GB,1612542368
Udachny,66.4167,112.4,-38.82,79,15,0.74,RU,1612542249
Nanortalik,60.1432,-45.2371,-4.86,79,0,0.36,GL,1612542368
Hirara,24.8,125.2833,20.84,60,97,4.11,JP,1612542368
Sassandra,4.95,-6.0833,28.86,73,28,4.02,CI,1612542368
Quanzhou,24.9139,118.5858,15.0,88,1,1.0,CN,1612542368
Caxito,-8.5785,13.6643,30.0,62,20,5.14,AO,1612542368
Taloda,21.5667,74.2167,23.23,21,0,3.93,IN,1612542368
Ust-Kuyga,70.0167,135.6,-36.22,82,100,1.86,RU,1612542368
Narsaq,60.9167,-46.05,-7.0,35,1,1.03,GL,1612542368
Mount Gambier,-37.8333,140.7667,13.0,94,90,4.63,AU,1612542369
Timizart,36.8,4.2667,19.24,47,6,3.88,DZ,1612542369
Najrān,17.4924,44.1277,27.0,18,0,5.14,SA,1612542332
Câmara de Lobos,32.6333,-16.9667,15.0,55,75,7.72,PT,1612542369
Padang,-0.9492,100.3543,26.0,89,40,1.03,ID,1612542369
Saint-Pierre,-21.3393,55.4781,28.0,69,40,4.63,RE,1612542369
Ouro Sogui,15.6064,-13.3211,29.0,34,99,4.12,SN,1612542369
Wu’an,31.6836,112.0044,9.79,67,0,2.03,CN,1612542369
Launceston,-41.45,147.1667,20.0,88,90,4.63,AU,1612542090
Piura,-5.2,-80.6333,28.14,46,96,4.39,PE,1612542160
Hirado,33.3597,129.5531,8.89,68,100,0.45,JP,1612542248
Akropong,5.9746,-0.0854,29.0,70,0,2.06,GH,1612542369
Los Llanos de Aridane,28.6585,-17.9182,16.0,67,40,6.69,ES,1612542108
Yuxia,34.0615,108.6291,8.33,59,0,2.29,CN,1612542369
Payakumbuh,-0.2202,100.6308,21.17,88,98,0.37,ID,1612542369
São João da Barra,-21.6403,-41.0511,28.0,69,90,2.06,BR,1612542094
Zhezkazgan,47.8043,67.7144,-5.55,97,27,2.0,KZ,1612542369
Karema,-6.8205,30.4389,24.97,77,13,2.58,TZ,1612542369
Tsiroanomandidy,-18.7667,46.0333,23.09,87,100,0.76,MG,1612542369
Antalaha,-14.9003,50.2788,25.9,85,4,1.96,MG,1612542369
Freetown,8.484,-13.2299,28.4,56,97,4.21,SL,1612542370
Dickinson,29.4608,-95.0513,13.0,58,90,6.17,US,1612542370
Novobelokatay,55.7062,58.9549,1.71,90,100,2.4,RU,1612542370
Chokurdakh,70.6333,147.9167,-26.03,88,98,5.92,RU,1612542370
Province of Mantua,45.1667,10.7833,10.56,90,99,0.57,IT,1612542370
Teahupoo,-17.8333,-149.2667,27.78,65,11,0.89,PF,1612542370
Dakar,14.6937,-17.4441,21.0,73,40,9.77,SN,1612542370
São Miguel do Araguaia,-13.275,-50.1628,30.15,67,55,3.03,BR,1612542370
Quatre Cocos,-20.2078,57.7625,27.0,78,75,2.06,MU,1612542370
Ust'-Kut,56.7938,105.7672,-16.09,91,99,1.37,RU,1612542370
Salinópolis,-0.6136,-47.3561,29.89,64,2,4.5,BR,1612542370
Rawson,-43.3002,-65.1023,27.49,35,0,9.09,AR,1612542318
Pamanukan,-6.2842,107.8106,25.14,89,66,3.02,ID,1612542370
Watsa,3.0372,29.5355,28.72,26,91,1.16,CD,1612542362
Labuhan,-6.8844,112.2051,26.19,84,99,6.28,ID,1612542370
Portobelo,9.55,-79.65,31.67,65,99,2.68,PA,1612542370
Burayevo,55.8407,55.4083,2.09,99,100,8.15,RU,1612542370
Majene,-3.5403,118.9707,25.68,83,100,2.28,ID,1612542370
Midland,31.9974,-102.0779,9.0,49,1,3.6,US,1612542303
Carinhanha,-14.3047,-43.765,32.98,45,29,2.93,BR,1612542370
Pavlodar,52.3,76.95,-1.0,100,90,3.0,KZ,1612542184
Coihueco,-36.6167,-71.8333,18.0,82,75,4.12,CL,1612542371
Mineiros,-17.5694,-52.5511,28.83,61,50,1.72,BR,1612542170
Airai,-8.9266,125.4092,16.5,100,100,1.27,TL,1612542371
Ovsyanka,55.9575,92.5519,-17.0,85,0,1.0,RU,1612542371
Ancud,-41.8697,-73.8203,27.0,29,0,8.75,CL,1612542371
Khani,41.9563,42.9566,9.0,87,90,7.72,GE,1612542371
Edd,13.9297,41.6925,27.66,40,0,9.75,ER,1612542371
Port-Gentil,-0.7193,8.7815,29.0,79,75,5.66,GA,1612542371
Sembakung,3.8167,117.25,26.0,94,40,1.54,ID,1612542371
Santa Rosa,14.3122,121.1114,26.11,78,75,1.03,PH,1612542371
São Filipe,14.8961,-24.4956,22.26,70,100,7.22,CV,1612542371
Santa Maria,-29.6842,-53.8069,23.0,60,75,3.6,BR,1612542232
Mpika,-11.8343,31.4529,20.31,92,44,3.11,ZM,1612542371
Morant Bay,17.8815,-76.4093,30.0,66,20,10.29,JM,1612542371
Doaba,33.4244,70.7364,9.25,56,0,0.95,PK,1612542371
Leningradskiy,69.3833,178.4167,-25.12,87,100,4.12,RU,1612542371
Boa Vista,2.8197,-60.6733,29.0,58,75,7.72,BR,1612542099
Lata,40.1629,-8.3327,12.22,86,100,0.45,PT,1612542371
Tiarei,-17.5333,-149.3333,27.78,65,21,0.89,PF,1612542371
Chumphon,10.3333,98.8333,20.38,97,52,1.21,TH,1612542371
Mookane,-23.688,26.6595,23.67,80,86,3.22,BW,1612542372
Tuatapere,-46.1333,167.6833,11.38,89,89,0.76,NZ,1612542372
Mēga,4.05,38.3,21.25,32,36,3.68,ET,1612542372
Olinda,-8.0089,-34.8553,29.0,58,40,5.14,BR,1612542372
Beaverlodge,55.2166,-119.4361,-21.0,77,90,3.09,CA,1612542372
Tsovazard,40.4709,45.0588,3.0,87,40,1.54,AM,1612542372
Lensk,60.7253,114.9278,-30.94,84,94,0.33,RU,1612542372
Bilibino,68.0546,166.4372,-29.05,80,9,1.94,RU,1612542372
Barra do Garças,-15.89,-52.2567,32.0,62,75,2.06,BR,1612542146
Tebingtinggi,3.3285,99.1625,26.0,94,20,2.57,ID,1612542372
Caçapava do Sul,-30.5122,-53.4914,20.69,62,17,4.08,BR,1612542372
Cairns,-16.9167,145.7667,26.0,83,75,2.57,AU,1612542091
Arlit,18.7369,7.3853,29.79,12,19,2.61,NE,1612542372
Byron Bay,-28.65,153.6167,21.0,94,75,2.57,AU,1612542096
Kargil,34.5667,76.1,-19.32,75,0,1.21,IN,1612542295
Kieta,-6.2167,155.6333,26.68,81,72,2.44,PG,1612542288
Bismarck,46.8083,-100.7837,-13.0,72,90,4.12,US,1612542079
Alofi,-19.0595,-169.9187,25.0,94,100,4.12,NU,1612542372
Menzelinsk,55.7271,53.1026,2.0,93,90,8.0,RU,1612542373
Lesnoy,57.6198,63.0784,1.22,99,100,4.35,RU,1612542373
Denpasar,-8.65,115.2167,26.0,94,40,2.06,ID,1612542373
Christchurch,-43.5333,172.6333,12.22,93,40,1.03,NZ,1612542158
Shuyskoye,59.3736,41.0305,-15.12,93,100,3.78,RU,1612542373
Adelanto,34.5828,-117.4092,10.56,34,0,1.34,US,1612542373
Bahía Honda,22.9036,-83.1592,22.75,64,11,2.56,CU,1612542144
Philadelphia,39.9523,-75.1638,7.78,75,20,7.72,US,1612542294
Balkanabat,39.5108,54.3671,15.76,33,99,1.26,TM,1612542373
Brightwater,-41.3833,173.1167,12.78,71,32,1.41,NZ,1612542373
Kontagora,10.3999,5.4695,37.88,9,0,2.08,NG,1612542373
Constitución,-35.3333,-72.4167,17.34,72,83,2.98,CL,1612542373
Shubarshi,48.5872,57.1869,1.19,91,100,6.37,KZ,1612542373
Santa Cruz de Tenerife,28.4682,-16.2546,15.56,100,75,8.75,ES,1612542373
Berbera,10.4396,45.0143,24.09,72,87,5.85,SO,1612542373
Porto-Novo,6.4965,2.6036,31.0,74,20,6.17,BJ,1612542088
Blackwater,-23.5833,148.8833,22.77,78,79,4.59,AU,1612542074
Jalu,29.0331,21.5482,18.89,35,0,3.25,LY,1612542145
Nabire,-3.3667,135.4833,24.44,82,100,1.61,ID,1612542306
Ifakara,-8.1333,36.6833,26.5,78,45,1.11,TZ,1612542373
Līvāni,56.3543,26.1758,-12.51,95,100,2.18,LV,1612542374
Ubari,26.5921,12.7805,22.36,21,0,5.27,LY,1612542374
Biga,40.2281,27.2422,16.11,100,8,1.03,TR,1612542374
Huarmey,-10.0681,-78.1522,24.1,64,70,4.4,PE,1612542336
Marovoay,-16.1,46.6333,28.0,83,20,4.12,MG,1612542374
Karibib,-21.9333,15.8333,30.57,30,71,6.77,NA,1612542374
Borovskoy,53.8,64.15,1.15,99,100,4.32,KZ,1612542374
Muroto-misakicho,33.2833,134.15,11.91,58,95,4.39,JP,1612542374
Broome,42.2506,-75.833,5.0,75,90,5.66,US,1612542323
Drovyanaya,51.5833,113.0333,-20.0,77,27,1.92,RU,1612542374
Tarauacá,-8.1614,-70.7656,26.72,86,100,0.84,BR,1612542374
Lima Duarte,-21.8425,-43.7931,26.67,73,75,5.14,BR,1612542374
Marsh Harbour,26.5412,-77.0636,22.12,60,10,7.16,BS,1612542374
Yumen,40.2833,97.2,0.29,72,100,9.37,CN,1612542374
Ibotirama,-12.1853,-43.2206,33.48,42,71,3.71,BR,1612542374
Rumoi,43.9344,141.6428,-5.16,97,100,3.31,JP,1612542374
Touros,-5.1989,-35.4608,31.0,55,40,8.23,BR,1612542131
