City,Lat,Lng,Max Temp,Humidity,Cloudiness,Wind Speed,Country,Date
Torbay,47.6666,-52.7314,33.01,86,90,32.21,CA,1612901282
Albany,42.6001,-73.9662,28.0,87,100,3.06,US,1612901116
Vaini,-21.2,-175.2,80.6,89,90,21.85,TO,1612901274
Thaba-Tseka,-29.522,28.6084,57.85,72,100,1.1,LS,1612901544
Butaritari,3.0707,172.7902,80.89,83,5,16.55,KI,1612901267
Lompoc,34.6391,-120.4579,55.4,71,75,3.44,US,1612901332
Upernavik,72.7868,-56.1549,10.6,76,22,2.19,GL,1612901282
Punta Arenas,-53.15,-70.9167,69.8,52,0,5.75,CL,1612901123
Rawson,-43.3002,-65.1023,78.22,33,100,28.19,AR,1612901544
Qaanaaq,77.484,-69.3632,18.03,73,0,5.1,GL,1612901385
George Town,5.4112,100.3354,80.6,83,20,3.44,MY,1612901266
Puerto Ayora,-0.7393,-90.3518,81.0,89,90,14.97,EC,1612901261
Ileza,61.0533,43.9002,-14.21,90,0,2.28,RU,1612901544
Vila Franca do Campo,37.7167,-25.4333,61.0,94,75,14.97,PT,1612901544
Ushuaia,-54.8,-68.3,64.4,59,40,4.61,AR,1612901264
Bambous Virieux,-20.3428,57.7575,78.8,78,20,4.61,MU,1612901336
Lom Sak,16.7798,101.2422,66.56,89,16,5.57,TH,1612901432
Mikhaylovka,50.06,43.2379,20.59,96,100,16.51,RU,1612901362
Nishihara,26.1842,127.7558,62.6,59,75,5.75,JP,1612901358
Bethel,41.3712,-73.414,28.4,86,90,4.61,US,1612901156
Bereket,39.2446,55.5154,51.69,61,34,1.95,TM,1612901544
Oriximiná,-1.7656,-55.8661,83.01,75,89,1.92,BR,1612901544
San Cristobal,7.7669,-72.225,86.0,54,40,11.5,VE,1612901544
Chapais,49.7834,-74.8492,10.4,72,90,2.3,CA,1612901544
Ribeira Grande,38.5167,-28.7,62.6,94,75,24.16,PT,1612901304
Teguise,29.0605,-13.564,66.2,72,20,6.91,ES,1612901385
Santo Domingo,18.5001,-69.9886,87.8,58,20,11.5,DO,1612901387
Rikitea,-23.1203,-134.9692,78.33,72,50,7.18,PF,1612901256
Tasiilaq,65.6145,-37.6368,17.6,53,75,19.57,GL,1612901272
Port Hardy,50.6996,-127.4199,33.8,80,75,5.75,CA,1612901270
Carnarvon,-24.8667,113.6333,73.4,100,40,19.57,AU,1612901209
Thompson,55.7435,-97.8558,-22.0,63,40,9.22,CA,1612901047
Paamiut,61.994,-49.6678,31.57,88,97,6.87,GL,1612901338
Lae,-6.7221,146.9847,77.34,83,100,10.85,PG,1612901545
Tongren,27.7172,109.1853,46.98,89,100,0.43,CN,1612901545
Poya,-21.35,165.15,77.52,74,45,2.95,NC,1612901545
Severo-Kuril'sk,50.6789,156.125,25.79,93,100,22.84,RU,1612901373
Kenai,60.5544,-151.2583,8.01,72,90,10.36,US,1612901341
Mahébourg,-20.4081,57.7,78.8,78,20,4.61,MU,1612901279
Kloulklubed,7.0419,134.2556,77.0,83,90,5.75,PW,1612901545
Vilyuysk,63.7553,121.6247,-22.18,86,72,6.24,RU,1612901545
Pevek,69.7008,170.3133,-4.36,72,0,0.76,RU,1612901260
Hobart,-42.8794,147.3294,50.0,81,20,5.75,AU,1612901265
Mar del Plata,-38.0023,-57.5575,69.8,68,75,16.11,AR,1612901178
Olafsvik,64.8945,-23.7142,29.16,94,100,21.7,IS,1612901337
Sisimiut,66.9395,-53.6735,18.84,80,0,4.0,GL,1612901545
Lingyuan,41.24,119.4011,24.53,84,0,4.43,CN,1612901545
Sosnovo-Ozerskoye,52.5249,111.5418,9.03,92,94,3.22,RU,1612901545
Chui,-33.6971,-53.4616,73.63,72,0,10.07,UY,1612901266
Kostanay,53.1667,63.5833,-11.2,70,0,13.42,KZ,1612901545
Mataura,-46.1927,168.8643,48.15,95,100,5.48,NZ,1612901256
Bredasdorp,-34.5322,20.0403,66.2,77,4,1.14,ZA,1612901278
Cabra,37.4725,-4.4421,53.01,80,100,5.01,ES,1612901546
New Norfolk,-42.7826,147.0587,50.0,66,28,1.83,AU,1612901259
Esmeraldas,-19.7625,-44.3139,80.6,68,75,10.36,BR,1612901546
Porto-Novo,6.4965,2.6036,84.2,89,20,12.66,BJ,1612901546
Atuona,-9.8,-139.0333,79.23,76,13,18.86,PF,1612901259
Shebunino,46.4339,141.8603,21.29,92,100,10.65,RU,1612901546
Mehamn,71.0357,27.8492,23.0,93,90,27.63,NO,1612901281
Saint-Leu,-21.15,55.2833,80.6,65,20,18.41,RE,1612901546
Kudahuvadhoo,2.6708,72.8944,81.16,76,11,16.69,MV,1612901378
Cabo San Lucas,22.8909,-109.9124,73.99,60,1,9.22,MX,1612901305
Kismayo,-0.3582,42.5454,78.22,83,0,19.44,SO,1612901411
Mezhdurechensk,53.6942,88.0603,2.64,91,100,4.88,RU,1612901546
Shahr-e Kord,32.3256,50.8644,35.6,55,0,2.3,IR,1612901546
Hilo,19.7297,-155.09,73.4,68,90,11.5,US,1612901196
Colac,-38.3333,143.5833,55.0,95,9,6.76,AU,1612901546
Barrow,71.2906,-156.7887,-29.2,68,1,13.8,US,1612901256
Avarua,-21.2078,-159.775,82.4,78,100,6.91,CK,1612901255
Nikolskoye,59.7035,30.7861,6.01,85,20,2.24,RU,1612901258
Kaitangata,-46.2817,169.8464,55.0,94,100,4.0,NZ,1612901344
East London,-33.0153,27.9116,72.86,74,0,4.43,ZA,1612901102
Saskylakh,71.9167,114.0833,-24.23,82,0,8.63,RU,1612901265
Katsuura,35.1333,140.3,39.2,38,20,11.5,JP,1612901277
Laas,46.6166,10.7002,42.8,65,75,3.44,IT,1612901271
Constitución,-35.3333,-72.4167,70.2,67,13,8.37,CL,1612901287
Mogadishu,2.0371,45.3438,77.22,78,99,24.96,SO,1612901454
Boffa,10.1667,-14.0333,76.71,70,40,6.15,GN,1612901547
Bluff,-46.6,168.3333,52.41,86,100,8.97,NZ,1612901284
Grindavik,63.8424,-22.4338,30.2,93,90,10.36,IS,1612901294
Kapaa,22.0752,-159.319,71.6,49,1,21.85,US,1612901271
Xining,36.6167,101.7667,29.46,68,0,1.61,CN,1612901550
Cape Town,-33.9258,18.4232,71.01,83,0,24.16,ZA,1612900994
Nortelândia,-14.4547,-56.8028,91.04,36,0,4.92,BR,1612901550
Coahuayana Viejo,18.7333,-103.6833,80.6,41,40,7.65,MX,1612901551
Astoria,46.1879,-123.8313,43.0,87,20,2.15,US,1612901551
Lubao,14.9167,120.55,78.8,83,75,4.61,PH,1612901551
Władysławowo,54.7909,18.4009,17.01,92,75,3.44,PL,1612901551
Kurumkan,54.3,110.3,15.51,86,100,2.82,RU,1612901551
Petropavlovsk-Kamchatskiy,53.0452,158.6483,24.8,100,90,6.71,RU,1612901308
Uryupinsk,50.8047,42.0138,10.0,89,100,8.01,RU,1612901551
Mahanoro,-19.9,48.8,77.43,87,98,5.59,MG,1612901551
Boyolangu,-8.1181,111.8935,75.43,87,96,1.61,ID,1612901326
Korčula,42.9622,17.1369,50.0,93,20,3.44,HR,1612901551
Narsaq,60.9167,-46.05,35.6,27,40,29.93,GL,1612901309
Urusha,54.05,122.9,1.71,94,77,1.1,RU,1612901551
Shelburne,44.0787,-80.2041,25.0,58,90,9.22,CA,1612901551
Port Alfred,-33.5906,26.891,70.0,91,28,2.15,ZA,1612901258
Mossamedes,-15.1961,12.1522,73.26,76,93,7.16,AO,1612901260
Esperance,-33.8667,121.9,59.0,82,0,3.44,AU,1612900987
Maceió,-9.6658,-35.7353,82.4,69,0,9.22,BR,1612901350
Bua Yai,15.5855,102.4259,68.7,78,24,11.03,TH,1612901551
Ilulissat,69.2167,-51.1,21.2,45,1,2.3,GL,1612901296
Pechenga,69.5259,31.1703,19.4,79,40,14.97,RU,1612901551
Ishigaki,24.3448,124.1572,68.13,74,99,18.7,JP,1612901551
Nacala,-14.5428,40.6728,79.68,85,100,12.84,MZ,1612901552
Kawalu,-7.3817,108.2082,72.28,91,92,0.78,ID,1612901552
Petites Anses,15.8501,-61.6442,82.4,61,40,14.97,GP,1612901552
Tungor,53.3808,142.9564,0.12,93,59,11.16,RU,1612901552
Clyde River,70.4692,-68.5914,-0.4,92,20,6.91,CA,1612901317
Alofi,-19.0595,-169.9187,80.6,89,75,8.05,NU,1612901364
Hammerfest,70.6634,23.6821,21.2,86,75,19.57,NO,1612901552
Portland,45.5234,-122.6762,45.0,72,100,1.99,US,1612901176
Pacific Grove,36.6177,-121.9166,57.99,76,75,3.44,US,1612901552
Petatlán,17.5167,-101.2667,86.0,66,1,11.5,MX,1612901552
Vestmannaeyjar,63.4427,-20.2734,38.39,76,100,14.32,IS,1612901476
Kalangala,-0.3089,32.225,73.4,78,84,8.05,UG,1612901552
College,64.8569,-147.8028,-34.6,79,20,4.61,US,1612901350
Siocon,7.7061,122.1353,77.4,86,93,3.36,PH,1612901552
Ponta do Sol,32.6667,-17.1,60.01,64,100,3.0,PT,1612901301
Río Gallegos,-51.6226,-69.2181,77.0,36,40,10.36,AR,1612901321
Korla,41.7597,86.1469,29.84,85,67,3.65,CN,1612901290
Norman Wells,65.282,-126.8329,-38.2,67,20,2.3,CA,1612901350
Capreol,46.706,-80.9225,16.0,48,40,14.97,CA,1612901552
Capelinha,-17.6914,-42.5158,71.85,91,14,3.04,BR,1612901552
Zhangye,38.9342,100.4517,33.28,71,66,4.43,CN,1612901552
Great Falls,47.5002,-111.3008,-11.0,76,90,6.91,US,1612900801
Castro,-24.7911,-50.0119,72.37,67,100,6.38,BR,1612901259
Sāl,32.5694,35.9119,57.2,54,0,4.92,JO,1612901553
Saint George,37.1041,-113.5841,61.0,26,1,1.5,US,1612901269
The Pas,53.8251,-101.2541,-14.8,64,90,13.8,CA,1612901553
Srednekolymsk,67.45,153.6833,-15.09,87,0,5.46,RU,1612901302
Renqiu,38.6989,116.0936,36.27,73,0,3.4,CN,1612901419
Ibrā’,22.6906,58.5334,61.07,78,100,0.63,OM,1612901554
Turukhansk,65.8167,87.9833,1.76,94,100,10.85,RU,1612901554
Vestmanna,62.1564,-7.1664,30.2,80,69,6.91,FO,1612901455
Thunder Bay,48.4001,-89.3168,1.0,46,40,10.36,CA,1612901554
Solnechnyy,50.7214,136.6319,-3.15,85,1,1.86,RU,1612901368
Jamestown,42.097,-79.2353,24.01,80,90,10.36,US,1612901151
Fairbanks,64.8378,-147.7164,-34.6,79,20,4.61,US,1612901434
Caravelas,-17.7125,-39.2481,78.76,76,90,6.24,BR,1612901256
Bengkulu,-3.8004,102.2655,75.61,88,100,4.92,ID,1612901291
Yellowknife,62.456,-114.3525,-8.0,70,90,18.41,CA,1612901391
Cherskiy,68.75,161.3,-3.51,84,0,1.07,RU,1612901302
Santa Rosa,14.3122,121.1114,75.2,88,90,2.3,PH,1612901326
Raja,8.4596,25.678,70.16,22,17,3.27,SS,1612901354
Isangel,-19.55,169.2667,77.0,88,20,6.98,VU,1612901277
Longyearbyen,78.2186,15.6401,15.8,79,75,10.36,SJ,1612901554
Labuhan,-6.8844,112.2051,77.85,86,100,11.23,ID,1612901554
Port Elizabeth,-33.918,25.5701,69.8,94,0,8.05,ZA,1612901262
Makakilo City,21.3469,-158.0858,75.2,50,40,5.75,US,1612901554
Touros,-5.1989,-35.4608,84.2,65,20,14.97,BR,1612901320
Nipawin,53.3668,-104.0009,-16.6,63,90,13.8,CA,1612901368
Luganville,-15.5333,167.1667,78.93,76,65,1.36,VU,1612901554
Post Falls,47.718,-116.9516,24.01,54,75,13.8,US,1612901554
Arraial do Cabo,-22.9661,-42.0278,75.2,88,90,2.3,BR,1612901265
Comodoro Rivadavia,-45.8667,-67.5,82.4,34,0,13.8,AR,1612901554
Nha Trang,12.25,109.1833,77.0,83,20,5.75,VN,1612901288
Tottori-shi,35.5,134.2333,35.06,84,31,6.98,JP,1612901555
Bandarbeyla,9.4942,50.8122,75.31,70,99,22.68,SO,1612901295
Laguna,38.421,-121.4238,64.0,55,1,4.07,US,1612901315
Hong Kong,22.2855,114.1577,64.0,82,96,1.01,HK,1612901173
Tiksi,71.6872,128.8694,-16.78,83,100,3.8,RU,1612901555
Yafran,32.0633,12.5286,58.69,33,0,9.82,LY,1612901555
Kutum,14.2,24.6667,59.47,31,93,8.05,SD,1612901441
Buala,-8.145,159.5921,79.93,85,51,9.28,SB,1612901555
Savannah Bight,16.45,-85.85,84.2,65,40,5.75,HN,1612901555
Tonekābon,36.8163,50.8738,46.4,100,40,4.61,IR,1612901555
Salem,11.65,78.1667,64.74,72,5,4.65,IN,1612901335
Busselton,-33.65,115.3333,54.0,98,88,1.01,AU,1612901003
Inhambane,-23.865,35.3833,80.6,89,75,5.75,MZ,1612901304
Batticaloa,7.7102,81.6924,74.68,77,99,9.86,LK,1612901555
Monkey Bay,-14.0728,34.9201,78.06,76,100,1.97,MW,1612901555
Nālūt,30.3333,10.85,55.71,35,4,3.76,LY,1612901555
Oranjemund,-28.55,16.4333,64.92,84,0,14.7,NA,1612901316
Abnūb,27.2696,31.1511,66.2,42,0,5.75,EG,1612901555
Port-Gentil,-0.7193,8.7815,82.4,83,20,3.44,GA,1612901446
Salalah,17.0151,54.0924,77.0,53,0,2.3,OM,1612901308
Daru,-9.0763,143.2092,79.16,84,100,4.03,PG,1612901294
Rocha,-34.4833,-54.3333,70.61,82,52,15.17,UY,1612901555
Boshan,36.4833,117.8333,41.0,43,3,6.71,CN,1612901478
Tuktoyaktuk,69.4541,-133.0374,-38.2,67,20,9.22,CA,1612901315
Consolación del Sur,22.5047,-83.5136,82.69,58,0,11.68,CU,1612901556
Kifrī,34.6959,44.9661,59.47,50,5,6.53,IQ,1612901556
Saint Paul Harbor,57.79,-152.4072,32.0,80,90,2.39,US,1612901263
Provideniya,64.3833,-173.3,-5.64,77,0,14.27,RU,1612901419
Mount Gambier,-37.8333,140.7667,53.6,94,0,5.75,AU,1612901351
Hithadhoo,-0.6,73.0833,82.44,78,87,10.4,MV,1612901298
Marawi,7.9986,124.2928,73.99,94,51,1.99,PH,1612901326
Iranshahr,27.2025,60.6848,60.8,25,0,4.61,IR,1612901556
Arrondissement de Laon,49.5667,3.6667,30.2,86,90,9.22,FR,1612901556
Fortuna,40.5982,-124.1573,54.0,93,40,3.91,US,1612901355
Gimli,50.6336,-96.9907,-9.4,49,100,9.22,CA,1612901556
Iralaya,15.0,-83.2333,82.02,64,0,13.02,HN,1612901300
Nemuro,43.3236,145.575,20.32,89,37,14.47,JP,1612901294
Monopoli,40.9559,17.2896,54.0,100,0,1.01,IT,1612901556
Port Hedland,-20.3167,118.5667,78.8,89,100,8.05,AU,1612901556
Kiryat Gat,31.61,34.7642,64.0,40,0,1.81,IL,1612901389
Luanda,-8.8368,13.2343,80.6,83,75,6.91,AO,1612901556
Igarka,67.4667,86.5833,-0.76,92,100,10.76,RU,1612901556
Atlantic City,39.3643,-74.4229,46.0,100,90,10.36,US,1612901269
Devesel,44.4689,22.6672,47.46,89,100,3.71,RO,1612901556
Estación Queréndaro,19.8667,-100.9167,77.0,23,20,6.91,MX,1612901556
Rincon,32.296,-81.2354,62.6,88,90,4.61,US,1612901556
Dikson,73.5069,80.5464,-29.11,87,96,9.98,RU,1612901258
Kruisfontein,-34.0033,24.7314,66.99,85,0,1.01,ZA,1612901278
Lüderitz,-26.6481,15.1594,69.8,68,0,12.46,NA,1612901338
Rio Grande,-32.035,-52.0986,77.0,69,40,5.75,BR,1612901262
São Paulo de Olivença,-3.3783,-68.8725,87.69,67,99,2.08,BR,1612901557
Cap Malheureux,-19.9842,57.6142,78.01,77,2,1.99,MU,1612901557
Ostrovnoy,68.0531,39.5131,5.5,86,95,9.37,RU,1612901261
Yarmouth,41.7057,-70.2286,34.0,86,90,4.61,US,1612901557
Husavik,66.0449,-17.3389,23.0,100,90,2.3,IS,1612901337
Hobyo,5.3505,48.5268,77.34,70,98,22.28,SO,1612901557
Ţahţā,26.7693,31.5021,66.2,45,0,5.75,EG,1612901557
Bilma,18.6853,12.9164,71.19,18,0,8.25,NE,1612901289
Bathsheba,13.2167,-59.5167,80.6,61,40,19.57,BB,1612901296
Puerto Escondido,15.85,-97.0667,86.0,70,20,9.22,MX,1612901278
Codrington,-38.2667,141.9667,54.48,92,0,8.25,AU,1612901296
Leningradskiy,69.3833,178.4167,-26.1,83,9,10.78,RU,1612901290
Pisco,-13.7,-76.2167,78.8,61,0,14.97,PE,1612901315
Oodweyne,9.4092,45.064,65.64,38,100,21.05,SO,1612901557
Hermanus,-34.4187,19.2345,66.99,84,0,9.08,ZA,1612901262
Manicoré,-5.8092,-61.3003,77.36,92,100,1.97,BR,1612901557
Arrondissement de Saint-Gaudens,43.0833,0.6667,46.0,81,0,6.91,FR,1612901557
Nara,34.6851,135.8049,37.0,59,42,1.07,JP,1612901557
Nome,64.5011,-165.4064,-0.4,42,1,11.5,US,1612901213
Nagua,19.3832,-69.8474,80.6,69,20,12.06,DO,1612901557
Haines Junction,60.7522,-137.5108,-34.6,67,77,2.3,CA,1612901374
Mapiripán,2.8892,-72.1256,91.6,49,54,10.18,CO,1612901557
Buraidah,26.326,43.975,53.6,71,0,2.3,SA,1612901308
Lebu,-37.6167,-73.65,67.37,67,3,13.42,CL,1612901314
Waipawa,-41.4122,175.5153,64.4,88,75,18.41,NZ,1612901409
Sitka,57.0531,-135.33,17.6,38,1,5.75,US,1612901286
Versoix,46.2833,6.1667,39.2,81,40,9.22,CH,1612901557
Fort Dodge,42.4975,-94.168,14.0,52,20,5.75,US,1612901557
Dwārka,22.2394,68.9678,69.44,74,33,10.58,IN,1612901557
Nokaneng,-19.6667,22.2667,70.27,91,100,7.34,BW,1612901558
Nosy Varika,-20.5833,48.5333,78.46,85,98,7.65,MG,1612901558
Klaksvík,62.2266,-6.589,30.2,80,91,6.91,FO,1612901169
Ola,59.5833,151.2833,16.54,93,100,23.96,RU,1612901558
Ambilobe,-13.2,49.05,75.74,90,100,1.59,MG,1612901361
Fort Saint James,54.4333,-124.25,-10.64,84,100,3.78,CA,1612901558
Raudeberg,61.9875,5.1352,23.0,68,0,9.22,NO,1612901313
Kahului,20.8947,-156.47,71.6,68,75,18.41,US,1612901331
Skole,49.0372,23.5135,30.0,86,100,57.0,UA,1612901558
Beringovskiy,63.05,179.3167,-9.0,91,98,10.96,RU,1612901358
Moose Factory,51.2585,-80.6094,-2.2,50,1,13.8,CA,1612901558
Kosh-Agach,50.0,88.6667,-0.67,82,1,5.32,RU,1612901558
Treinta y Tres,-33.2333,-54.3833,75.36,72,27,10.36,UY,1612901558
Qaqortoq,60.7167,-46.0333,35.6,27,40,29.93,GL,1612901558
Makokou,0.5738,12.8642,73.63,85,100,5.01,GA,1612901558
Pangnirtung,66.1451,-65.7125,8.6,72,20,1.59,CA,1612901558
Zyryanka,65.75,150.85,-21.35,85,0,1.61,RU,1612901438
Troitsko-Pechorsk,62.7084,56.1964,-10.44,89,100,5.32,RU,1612901558
Tutóia,-2.7619,-42.2744,84.2,74,75,16.11,BR,1612901558
Kirkwall,58.9848,-2.9587,30.2,55,20,14.97,GB,1612901558
Belle Fourche,44.6714,-103.8522,1.99,65,1,4.61,US,1612901558
Khani,41.9563,42.9566,48.2,87,0,8.05,GE,1612901559
Vao,-22.6667,167.4833,77.88,83,15,10.98,NC,1612901169
Mount Isa,-20.7333,139.5,78.8,83,96,6.8,AU,1612901311
Yatou,37.15,122.3833,35.19,87,0,10.54,CN,1612901239
Verkhnevilyuysk,63.4453,120.3167,-26.03,85,24,6.17,RU,1612901388
Souillac,-20.5167,57.5167,78.8,78,20,4.61,MU,1612901289
Taksimo,56.3444,114.8794,1.92,89,100,0.63,RU,1612901501
Soe,-9.8607,124.284,67.87,97,100,3.33,ID,1612901559
Smithers,54.7804,-127.1743,-4.0,54,40,11.5,CA,1612901559
Puerto Colombia,10.9878,-74.9547,87.8,58,0,20.71,CO,1612901530
Hiji,33.3667,131.5333,36.3,72,51,3.4,JP,1612901559
Faanui,-16.4833,-151.75,81.7,73,0,15.41,PF,1612901274
Ilebo,-4.3167,20.5833,77.34,68,100,2.15,CD,1612901431
Mazamet,43.49,2.373,50.0,76,0,16.11,FR,1612901559
Nikolayevka,53.1257,47.2041,1.71,92,100,10.83,RU,1612901559
Bell Ville,-32.6259,-62.6887,75.99,63,100,7.0,AR,1612901559
Manga,11.6636,-1.0731,83.28,13,0,8.5,BF,1612901559
Richards Bay,-28.783,32.0377,75.65,91,98,4.14,ZA,1612901360
Mayo,38.8876,-76.5119,50.0,61,1,6.91,US,1612901275
Rafaela,-31.2503,-61.4867,77.0,46,100,5.01,AR,1612901559
Seoul,37.5683,126.9778,26.6,80,40,6.91,KR,1612901492
Numata,36.6333,139.05,28.99,57,14,4.0,JP,1612901073
Cockburn Town,21.4612,-71.1419,80.6,61,40,13.8,TC,1612901303
Lasem,-6.6922,111.4527,76.59,91,100,6.69,ID,1612901559
Nuevo Progreso,23.1667,-97.95,82.99,63,74,9.1,MX,1612901559
Karratha,-20.7377,116.8463,82.24,52,0,13.8,AU,1612901560
Princeton,25.5384,-80.4089,84.2,58,40,10.36,US,1612901560
Aksu,41.1231,80.2644,29.66,86,79,1.79,CN,1612901328
Rørvik,64.8621,11.2373,15.8,100,20,3.44,NO,1612901561
Altdorf,49.3875,11.3572,19.99,79,75,3.44,DE,1612901561
Ormara,25.2088,64.6357,74.12,38,13,13.13,PK,1612901304
Kāsaragod,12.5,75.0,75.2,73,0,3.44,IN,1612901561
Shimanovsk,52.0,127.7,-7.74,91,99,3.06,RU,1612901539
Kyzyl-Suu,42.3414,78.0056,32.59,84,100,4.59,KG,1612901561
Dunmore Town,25.5,-76.65,75.22,81,0,10.04,BS,1612901561
Dakar,14.6937,-17.4441,68.0,73,0,11.5,SN,1612901177
Muhos,64.808,25.9931,-7.6,77,90,2.3,FI,1612901561
Poum,-20.2333,164.0167,79.56,70,0,13.91,NC,1612901561
Tuatapere,-46.1333,167.6833,51.78,89,100,5.39,NZ,1612901275
Khatanga,71.9667,102.5,-18.81,84,0,9.93,RU,1612901339
Balabac,7.9868,117.0645,79.05,84,93,5.44,PH,1612901561
Sakakah,29.9697,40.2064,59.0,51,20,8.05,SA,1612901561
Pochutla,15.7432,-96.4661,90.0,48,20,11.5,MX,1612901282
Kayseri Province,38.737,35.4968,39.2,70,0,6.91,TR,1612901561
Acaraú,-2.8856,-40.12,78.01,86,100,1.39,BR,1612901361
Gaza,31.5,34.4667,64.0,40,0,1.92,PS,1612901468
Lianhe,47.1333,129.2667,2.82,90,100,1.9,CN,1612901561
Tiarei,-17.5333,-149.3333,86.0,62,20,8.05,PF,1612901562
Inta,66.0317,60.1659,-28.03,85,55,6.29,RU,1612901438
Santa Cruz del Sur,20.7147,-77.9956,83.68,57,60,7.09,CU,1612901562
Esim,4.8699,-2.2405,81.23,82,76,9.08,GH,1612901479
Bardsīr,29.9227,56.5743,42.8,28,0,4.61,IR,1612901562
Kirakira,-10.4544,161.9205,80.19,83,97,5.41,SB,1612901367
Visby,57.6409,18.296,23.0,73,90,9.22,SE,1612901562
Yar-Sale,66.8333,70.8333,-26.93,84,0,9.69,RU,1612901358
Dongsheng,39.8161,109.9776,26.1,77,0,5.35,CN,1612901562
Meybod,32.2501,54.0166,59.0,25,0,4.61,IR,1612901562
São Filipe,14.8961,-24.4956,70.79,76,100,10.89,CV,1612901339
Valparaíso,-33.0393,-71.6273,71.6,60,20,8.05,CL,1612901297
Evensk,61.95,159.2333,15.73,90,100,24.02,RU,1612901343
Arrondissement de Reims,49.1667,4.0833,30.2,86,90,9.22,FR,1612901562
Yulara,-25.2406,130.9889,84.2,58,33,4.32,AU,1612901340
Kiama,-34.6833,150.8667,63.0,93,100,1.99,AU,1612901562
Hasaki,35.7333,140.8333,32.0,55,20,5.75,JP,1612901299
Lakes Entrance,-37.8811,147.981,59.49,78,99,10.94,AU,1612901562
Karambakkudi,10.4667,79.1333,69.8,83,20,3.44,IN,1612901563
Maniitsoq,65.4167,-52.9,21.38,82,0,4.45,GL,1612901276
Chokurdakh,70.6333,147.9167,-12.6,88,38,3.44,RU,1612901269
Los Llanos de Aridane,28.6585,-17.9182,64.4,72,20,5.75,ES,1612901563
Yüksekova,37.5736,44.2872,41.0,56,0,6.91,TR,1612901563
Te Anau,-45.4167,167.7167,46.8,90,100,2.17,NZ,1612901014
Cave Spring,37.2276,-80.0128,59.0,41,90,9.22,US,1612901563
Saint-Philippe,-21.3585,55.7679,80.6,69,75,14.97,RE,1612901293
Cidreira,-30.1811,-50.2056,76.62,77,0,17.34,BR,1612901285
Barkhan,29.8977,69.5256,55.11,37,0,8.12,PK,1612901563
Saryg-Sep,51.5,95.6,13.68,94,100,1.54,RU,1612901563
São João da Barra,-21.6403,-41.0511,75.2,83,75,8.05,BR,1612901272
Churāchāndpur,24.3333,93.6667,48.15,72,0,1.92,IN,1612901563
Namatanai,-3.6667,152.4333,79.05,84,93,4.41,PG,1612901319
Beïnamar,8.6698,15.3813,76.89,16,23,3.15,TD,1612901563
Hue,16.4667,107.6,64.4,94,75,6.91,VN,1612901282
Adrar,20.5022,-10.0711,67.86,21,75,8.43,MR,1612901273
Rosário do Sul,-30.2583,-54.9142,81.99,54,100,9.78,BR,1612901563
Cayenne,4.9333,-52.3333,82.4,69,75,12.66,GF,1612901353
Eureka,40.8021,-124.1637,54.0,72,100,3.0,US,1612901073
Havelock,34.8791,-76.9013,64.99,82,90,5.75,US,1612901563
Yenagoa,4.9247,6.2642,80.38,83,98,6.15,NG,1612901289
Sokur,55.2093,83.319,-0.4,78,40,11.18,RU,1612901564
Faya,18.3851,42.4509,50.0,76,0,5.12,SA,1612901395
Port Keats,-14.25,129.55,78.4,83,100,1.63,AU,1612901423
Ruteng,-8.6136,120.4721,62.91,98,100,0.56,ID,1612901564
Baruun-Urt,46.6806,113.2792,6.35,89,12,8.99,MN,1612901515
Lakatoro,-16.0999,167.4164,79.9,71,0,0.65,VU,1612901564
Kassala,15.451,36.4,75.52,30,0,11.3,SD,1612901564
Kolpny,52.2282,37.0368,10.44,95,100,8.72,RU,1612901564
Katherine,-14.4667,132.2667,75.2,94,61,3.44,AU,1612901564
Inongo,-1.95,18.2667,80.33,61,100,5.68,CD,1612901564
Lavrentiya,65.5833,-171.0,-12.64,80,0,14.67,RU,1612901309
Mackenzie,55.2999,-123.1698,-14.8,48,1,5.75,CA,1612901564
Terrace,54.5163,-128.6035,5.0,61,75,24.16,CA,1612901564
Hay River,60.8156,-115.7999,-18.4,69,100,21.85,CA,1612901266
Tromsø,69.6496,18.957,21.2,86,90,5.75,NO,1612901564
Betioky,-23.7167,44.3833,70.5,97,100,5.06,MG,1612901511
Hanting,36.7708,119.2108,36.77,75,12,6.46,CN,1612901564
Pekan,3.4836,103.3996,77.0,88,20,2.3,MY,1612901564
Lakhīmpur,27.95,80.7667,59.61,52,100,4.41,IN,1612901564
Selma,36.5708,-119.6121,62.6,63,1,4.61,US,1612901565
Zambezi,-13.5432,23.1047,69.73,92,100,6.6,ZM,1612901565
Beyla,8.6833,-8.6333,79.07,20,97,2.39,GN,1612901565
Salta,-24.7859,-65.4117,62.6,94,90,9.22,AR,1612901435
Sampit,-2.5333,112.95,75.29,98,100,2.15,ID,1612901565
Puerto del Rosario,28.5004,-13.8627,68.0,68,75,8.05,ES,1612901565
Lieksa,63.3167,30.0167,0.45,92,0,0.89,FI,1612901565
Nantucket,41.2835,-70.0995,33.01,100,90,11.5,US,1612901291
Yumen,40.2833,97.2,31.91,77,51,16.13,CN,1612901565
Dinar,38.065,30.1656,48.2,81,20,9.22,TR,1612901565
Cabedelo,-6.9811,-34.8339,84.2,70,0,11.5,BR,1612901565
Ciudad Bolivar,8.1222,-63.5497,91.92,37,100,13.62,VE,1612901565
Junín,-34.5838,-60.9433,79.0,16,49,1.99,AR,1612901565
Prince Rupert,54.3161,-130.3201,24.8,74,90,4.61,CA,1612901565
Westport,41.1415,-73.3579,33.01,86,90,10.36,US,1612901134
Pontianak,-0.0333,109.3333,77.0,100,75,3.44,ID,1612901565
Iracoubo,5.4802,-53.2011,79.5,75,6,12.24,GF,1612901565
Sokoni,-6.4333,39.55,80.6,78,20,11.5,TZ,1612901565
Khātra,22.9833,86.85,61.48,34,0,3.4,IN,1612901565
Gejiu,23.306,103.1635,37.35,100,52,2.26,CN,1612901566
Pyinmana,19.7333,96.2167,61.57,58,0,3.62,MM,1612901566
Olavarría,-36.8927,-60.3225,81.82,22,0,9.31,AR,1612901566
Viedma,-40.8135,-62.9967,82.99,35,82,1.01,AR,1612901311
Jiayuguan City,39.8167,98.3,32.25,74,22,4.65,CN,1612901566
Nanortalik,60.1432,-45.2371,29.5,87,78,14.94,GL,1612901334
Ketchikan,55.3422,-131.6461,19.4,62,20,6.91,US,1612901299
Verkhniachka,48.8285,30.0396,20.41,95,96,2.44,UA,1612901566
Oudtshoorn,-33.5907,22.2014,66.2,94,75,1.14,ZA,1612901461
Gamba,-2.65,10.0,77.65,87,100,4.43,GA,1612901566
Svobodnyy,51.4,128.1333,-7.87,91,100,4.16,RU,1612901566
Marivan,35.5219,46.176,44.08,58,47,0.36,IR,1612901566
Zhigansk,66.7697,123.3711,-28.19,83,0,0.58,RU,1612901471
Buin,-33.7333,-70.75,90.0,27,20,6.91,CL,1612901566
La Ronge,55.1001,-105.2842,-18.4,52,100,11.5,CA,1612901356
Ortoaia,47.35,25.4333,39.0,78,93,5.06,RO,1612901566
Itarema,-2.9248,-39.9167,78.53,86,100,3.33,BR,1612901566
Paragominas,-2.9667,-47.4833,79.57,92,100,3.58,BR,1612901566
Luan,46.3592,6.9759,37.99,92,81,3.98,CH,1612901566
Bria,6.5423,21.9863,70.95,21,93,3.02,CF,1612901566
Bundaberg,-24.85,152.35,69.01,82,1,9.22,AU,1612901566
Santa Comba,43.0331,-8.8093,51.01,77,100,7.18,ES,1612901566
Puerto Nariño,-3.7703,-70.3831,82.4,83,75,4.61,CO,1612901567
Ust-Kuyga,70.0167,135.6,-22.23,82,100,6.17,RU,1612901352
Kavaratti,10.5669,72.642,80.89,68,0,7.58,IN,1612901567
Macamic,48.7502,-78.9996,12.2,57,75,11.5,CA,1612901567
Mumford,5.2618,-0.759,82.13,82,45,13.27,GH,1612901567
Shitanjing,39.2342,106.3439,31.55,71,0,9.78,CN,1612901567
Plettenberg Bay,-34.0527,23.3716,66.6,87,0,2.37,ZA,1612901481
Bubaque,11.2833,-15.8333,79.83,61,100,14.99,GW,1612901345
Grand Gaube,-20.0064,57.6608,78.01,77,10,1.99,MU,1612901567
Taywarah,33.35,64.4167,30.94,79,0,1.77,AF,1612901567
Port Lincoln,-34.7333,135.8667,69.51,61,0,7.87,AU,1612901349
Kysyl-Syr,63.8986,122.7617,-26.32,85,36,6.58,RU,1612901567
Benguela,-12.5763,13.4055,76.21,83,98,4.59,AO,1612901532
Bruneck,46.7958,11.9364,35.01,94,87,2.06,IT,1612901567
Palauig,15.435,119.9045,78.26,69,81,8.1,PH,1612901567
Iqaluit,63.7506,-68.5145,8.6,78,40,5.75,CA,1612901288
Rāwah,34.4816,41.9093,60.67,45,4,7.23,IQ,1612901567
Zarubino,42.63,131.0922,21.43,92,62,10.47,RU,1612901567
Broome,42.2506,-75.833,28.99,80,90,6.91,US,1612901324
Shimoda,34.6667,138.95,40.62,69,33,9.08,JP,1612901332
Guerrero Negro,27.9769,-114.0611,67.53,51,5,9.91,MX,1612901369
Arecibo,18.4724,-66.7157,82.0,69,16,3.0,PR,1612901567
Mandiana,10.6333,-8.6833,82.33,17,0,3.6,GN,1612901502
Deputatsky,69.3,139.9,-24.23,89,38,1.99,RU,1612901567
Awjilah,29.1081,21.2869,62.2,28,100,6.8,LY,1612901567
Praia,14.9215,-23.5087,69.8,73,0,23.02,CV,1612901212
Tomatlán,19.9333,-105.25,85.62,42,0,9.26,MX,1612901567
Songea,-10.6833,35.65,69.8,83,75,5.75,TZ,1612901567
Ancud,-41.8697,-73.8203,78.8,41,0,10.36,CL,1612901267
Mambago,7.1056,125.6944,77.0,100,20,3.44,PH,1612901568
Dicabisagan,17.0818,122.4157,73.49,89,100,11.39,PH,1612901568
Leshukonskoye,64.8989,45.7622,-9.0,91,99,2.57,RU,1612901290
Campobello di Mazara,37.6358,12.7443,57.2,82,0,10.36,IT,1612901568
Atbasar,51.8,68.3333,-24.56,86,13,10.47,KZ,1612901341
Wewak,-3.5534,143.6268,77.99,84,99,6.04,PG,1612901568
Nioro,13.35,-15.75,87.49,13,99,7.11,GM,1612901568
Along,28.1667,94.7667,51.1,62,0,1.63,IN,1612901511
Kumul,42.8,93.45,33.64,79,100,3.69,CN,1612901306
Flinders,-34.5833,150.8552,63.0,89,100,1.01,AU,1612901568
Owando,-0.4819,15.8999,78.94,67,100,4.9,CG,1612901568
San Rafael,-34.6177,-68.3301,76.19,43,33,9.69,AR,1612901568
San Roque,36.2107,-5.3842,60.8,77,75,24.16,ES,1612901568
Saint-François,46.4154,3.9054,37.99,93,75,11.5,FR,1612901275
Georgiyevka,43.0369,74.7114,23.0,93,90,2.24,KZ,1612901377
Kavieng,-2.5744,150.7967,82.53,78,99,10.07,PG,1612901315
Itoman,26.1247,127.6694,62.6,67,75,10.36,JP,1612901281
Cumberland,35.0502,-78.8664,68.0,59,1,4.94,US,1612901568
Alyangula,-13.8483,136.4192,82.4,89,75,8.05,AU,1612901568
Bandundu Province,-3.3167,17.3667,78.08,76,100,4.32,CD,1612901568
Xinzhi,36.4989,111.7047,41.27,60,0,3.51,CN,1612901527
Kailua,21.4022,-157.7394,73.4,53,40,17.27,US,1612901568
Port Augusta,-32.5,137.7667,71.01,59,0,4.61,AU,1612901569
Shumskiy,54.8318,99.1328,12.33,93,100,2.26,RU,1612901569
Mareeba,-17.0,145.4333,77.0,94,75,1.14,AU,1612901569
Honningsvåg,70.9821,25.9704,23.0,93,90,27.63,NO,1612901569
Chumikan,54.7183,135.315,-1.44,86,100,17.9,RU,1612901569
Formosa do Rio Preto,-11.0483,-45.1931,79.54,82,100,2.01,BR,1612901569
Mbini,1.574,9.6134,81.16,81,56,8.03,GQ,1612901569
Krasnyy Chikoy,50.3643,108.7512,10.96,90,50,1.36,RU,1612901569
Saint Anthony,45.0205,-93.218,9.0,43,1,13.8,US,1612901569
Atherton,53.5237,-2.4935,34.0,66,34,5.99,GB,1612901569
Puerto Ayacucho,5.6639,-67.6236,94.39,40,96,8.57,VE,1612901569
Peace River,56.2501,-117.286,-20.2,63,75,12.66,CA,1612901569
Caramanta,5.5478,-75.6437,66.99,81,51,3.06,CO,1612901569
Lagoa,39.05,-27.9833,61.05,90,100,29.71,PT,1612901347
Vytegra,61.0064,36.4481,-3.69,91,6,2.73,RU,1612901569
Port-Cartier,50.0334,-66.8654,15.01,41,20,10.36,CA,1612901274
Auki,-8.7676,160.7034,79.36,86,39,9.66,SB,1612901569
Egvekinot,66.3167,-179.1667,-13.38,75,52,9.71,RU,1612901343
Birin,26.8865,88.0718,47.73,68,0,3.62,NP,1612901569
Winsum,53.33,6.5208,28.0,82,66,13.65,NL,1612901570
Yangi Marg`ilon,40.4272,71.7189,48.2,76,90,4.61,UZ,1612901570
Khilok,51.3674,110.4676,14.97,91,100,2.55,RU,1612901384
Wajima,37.4,136.9,40.39,74,100,14.38,JP,1612901570
Nyurba,63.2842,118.3319,-25.82,85,7,5.82,RU,1612901570
Ashoknagar,24.5667,77.7167,62.87,30,97,2.82,IN,1612901570
Aitape,-3.1374,142.3475,77.77,83,57,5.19,PG,1612901570
Belyy Yar,53.6039,91.3903,3.2,72,0,11.18,RU,1612901570
Alekseyevsk,57.8406,108.3492,22.35,93,100,10.22,RU,1612901570
Arlit,18.7369,7.3853,71.73,15,0,3.15,NE,1612901570
Yerbogachën,61.2767,108.0108,21.07,96,100,13.22,RU,1612901348
Hidrolândia,-4.4081,-40.4378,78.03,78,100,5.1,BR,1612901570
Grezzana,45.5203,11.0177,46.4,93,75,3.44,IT,1612901570
Hofn,64.2539,-15.2082,32.04,94,100,9.66,IS,1612901294
Khandyga,62.6667,135.6,-19.84,85,97,2.35,RU,1612901369
Nhulunbuy,-12.2333,136.7667,80.6,89,100,10.36,AU,1612901399
Belozërskoye,55.8214,65.5842,-11.52,88,99,10.6,RU,1612901570
Abu Samrah,35.3029,37.1841,58.6,59,100,4.25,SY,1612901284
Chāmpua,22.0833,85.6667,56.48,38,14,2.37,IN,1612901570
Cameron Park,38.6688,-120.9872,62.01,57,100,3.0,US,1612901570
Port Macquarie,-31.4333,152.9167,64.4,94,75,9.22,AU,1612901570
Fort-Shevchenko,44.5086,50.263,37.69,79,100,10.74,KZ,1612901570
Walvis Bay,-22.9575,14.5053,66.0,88,37,5.75,NA,1612901570
Bafia,4.75,11.2333,77.59,50,99,6.2,CM,1612901571
Chara,56.9064,118.2631,6.58,79,100,1.41,RU,1612901571
Gornopravdinsk,60.05,69.9,-24.11,86,1,4.14,RU,1612901571
Atasū,48.6814,71.6433,-5.73,92,100,13.31,KZ,1612901571
San Policarpo,12.1791,125.5072,78.12,89,100,16.73,PH,1612901571
Necochea,-38.5473,-58.7368,70.0,59,8,7.0,AR,1612901571
Bonavista,48.6499,-53.1147,34.0,100,100,16.11,CA,1612901343
Saint John,45.2727,-66.0677,23.0,45,75,8.05,CA,1612901272
Pimenta Bueno,-11.6725,-61.1936,84.56,79,76,1.05,BR,1612901571
Curug,-6.2658,106.5564,79.0,83,20,8.05,ID,1612901571
Benghazi,32.1167,20.0667,63.3,57,0,8.28,LY,1612901081
Pitimbu,-7.4706,-34.8086,84.2,70,0,11.5,BR,1612901571
Harper,4.375,-7.7169,80.33,82,92,5.1,LR,1612901477
Ciudad Río Bravo,25.9833,-98.1,82.4,51,75,9.22,MX,1612901571
Bragança,-1.0536,-46.7656,84.06,68,99,6.2,BR,1612901571
Meulaboh,4.1363,96.1285,77.86,85,13,4.83,ID,1612901357
Berlevåg,70.8578,29.0864,19.4,73,75,17.27,NO,1612901571
Matara,5.9485,80.5353,74.03,84,38,3.24,LK,1612901482
Roald,62.5833,6.1333,24.8,68,40,9.22,NO,1612901364
Shalinskoye,55.7228,93.7594,0.48,86,52,7.16,RU,1612901571
Vanimo,-2.6741,141.3028,77.67,83,47,4.07,PG,1612901571
Jalu,29.0331,21.5482,61.84,28,100,7.09,LY,1612901331
Cartagena,10.3997,-75.5144,87.8,62,22,17.27,CO,1612901363
North Bend,43.4065,-124.2243,48.0,76,40,4.63,US,1612901572
Vorukh,39.8494,70.5838,40.6,66,99,6.64,TJ,1612901498
Asău,46.4333,26.4,35.01,93,0,2.3,RO,1612901290
Akureyri,65.6835,-18.0878,23.0,93,90,2.17,IS,1612901540
Mogapi,-22.323,27.8349,71.8,61,95,8.23,BW,1612901572
Savièse,46.2511,7.3456,39.2,81,97,2.3,CH,1612901572
Bhīnmāl,25.0,72.25,61.97,31,100,5.12,IN,1612901572
Zandvoort,52.3749,4.5341,27.0,74,20,10.36,NL,1612901572
Cochrane,51.1834,-114.4687,-9.99,76,1,2.3,CA,1612901572
Bulungu,-4.55,18.6,73.09,89,100,3.49,CD,1612901572
Tessalit,20.1986,1.0114,71.82,17,0,10.2,ML,1612901482
Olinda,-8.0089,-34.8553,80.6,65,20,11.5,BR,1612901295
Isla Aguada,18.7833,-91.4667,86.0,54,1,10.36,MX,1612901572
Atar,20.5169,-13.0499,68.79,23,0,8.81,MR,1612901344
South Kazakhstan Region,43.0,68.0,29.68,97,100,6.98,KZ,1612901572
Champerico,14.3,-91.9167,91.4,55,75,9.22,GT,1612901572
Ayorou,14.7308,0.9174,80.92,13,0,9.28,NE,1612901572
Helong,42.5397,128.9972,18.86,90,91,6.13,CN,1612901572
Tarpon Springs,28.1461,-82.7568,77.0,69,64,8.05,US,1612901572
Aklavik,68.2191,-135.0107,-38.2,74,0,2.3,CA,1612901301
Yuci,37.6803,112.7319,21.2,63,0,4.47,CN,1612901572
Falmouth,50.1544,-5.0711,35.6,75,90,44.87,GB,1612901298
Quryq,43.2,51.65,45.43,60,100,9.46,KZ,1612901573
Bulawayo,-20.15,28.5833,65.97,78,100,11.07,ZW,1612901573
Mitsamiouli,-11.3847,43.2844,82.45,77,97,14.23,KM,1612901573
Kumluca,36.3703,30.2869,60.04,77,46,3.58,TR,1612901573
Lashio,22.9333,97.75,49.37,85,0,1.63,MM,1612901573
Ahipara,-35.1667,173.1667,68.7,90,100,7.0,NZ,1612901274
Taltal,-25.4,-70.4833,70.39,63,30,7.27,CL,1612901573
Sørland,67.667,12.6934,31.23,85,5,20.47,NO,1612901573
Nabire,-3.3667,135.4833,76.98,85,88,2.1,ID,1612901573
Severomuysk,56.1481,113.4267,8.91,91,100,3.58,RU,1612901573
Hirara,24.8,125.2833,66.47,75,43,19.24,JP,1612901574
Homer,59.6425,-151.5483,23.0,73,90,5.66,US,1612901574
Mamou,10.5,-12.0,78.84,25,0,3.74,GN,1612901574
Emmett,43.8735,-116.4993,43.0,32,71,1.99,US,1612901483
Merauke,-8.4667,140.3333,79.38,86,100,9.04,ID,1612901324
Colesberg,-30.72,25.0972,75.49,34,0,19.89,ZA,1612901574
Chimoré,-16.9833,-65.1333,77.34,93,100,6.31,BO,1612901574
Half Moon Bay,37.4636,-122.4286,57.99,87,90,3.44,US,1612901574
Tambaú,-21.705,-47.2744,75.9,75,7,3.83,BR,1612901574
Talnakh,69.4865,88.3972,-11.09,88,100,2.53,RU,1612901240
Aberdeen,57.1437,-2.0981,28.4,93,75,8.05,GB,1612901456
Soto la Marina,23.7667,-98.2167,82.99,68,16,8.01,MX,1612901574
Gerāsh,27.6652,54.1371,59.0,41,0,6.91,IR,1612901574
Muroto-misakicho,33.2833,134.15,46.26,62,6,5.35,JP,1612901574
Charters Towers,-20.1,146.2667,73.31,93,61,11.63,AU,1612901334
Aktau,43.65,51.2,35.6,93,75,17.9,KZ,1612901300
Sobolevo,54.4299,31.8996,7.65,95,98,7.96,RU,1612901301
Copiapó,-27.3667,-70.3333,69.8,56,0,14.97,CL,1612901574
Geraldton,-28.7667,114.6,60.8,88,40,9.22,AU,1612901278
Tura,25.5198,90.2201,59.25,38,0,2.8,IN,1612901359
Deer Lake,49.1667,-57.4316,26.6,80,90,13.8,CA,1612901574
Biak,-0.9131,122.8766,77.45,78,97,1.99,ID,1612901574
Örnsköldsvik,63.2909,18.7153,19.4,93,90,6.91,SE,1612901575
Vegachí,6.7614,-74.7947,76.3,84,43,2.89,CO,1612901575
Lorengau,-2.0226,147.2712,81.36,78,100,3.67,PG,1612901431
Kang,-23.6752,22.7876,71.62,75,99,8.3,BW,1612901575
Lexington,37.9887,-84.4777,36.0,75,90,9.22,US,1612901575
Punta Gorda,26.9298,-82.0454,84.99,57,1,11.5,US,1612901575
Nacogdoches,31.6002,-94.6335,69.01,88,90,8.05,US,1612901575
Christchurch,-43.5333,172.6333,55.99,100,90,9.22,NZ,1612901150
Santiago,-33.4569,-70.6483,90.0,27,20,6.91,CL,1612901453
Al Bardīyah,31.7561,25.0865,61.14,50,0,4.36,LY,1612901575
Araouane,18.9048,-3.5265,72.86,16,32,9.35,ML,1612901322
Shirokiy,49.758,129.523,-8.59,91,78,1.52,RU,1612901575
Dillon,34.4166,-79.3712,64.99,72,1,6.91,US,1612901575
Tabou,4.423,-7.3528,79.99,84,100,5.39,CI,1612901575
Barra do Garças,-15.89,-52.2567,78.8,73,75,11.5,BR,1612901575
Baykit,61.67,96.37,2.77,88,100,7.11,RU,1612901575
